timestamp,latitude,longitude,altitude(m),speed(m/s),yaw,pitch,roll,label
11:07:00.0,28.6394703,77.25495903,205.5870542,34.33342904,3.104754926,1.381942977,-0.002596162,1
09:35:00.0,28.62630337,77.23119796,15.20763667,31.26792686,31.1187207,-44.64889664,0.227653625,1
16:07:00.0,28.63132669,77.23363771,60.3872144,44.0902019,-49.63206669,33.08169769,-0.468695014,1
17:51:00.0,28.63514495,77.27905776,161.1266467,32.60458868,-3.970983133,11.19213281,2.40900582,1
14:10:00.0,28.62289548,77.24002283,68.6902981,29.26715829,23.68878774,-38.43916916,31.53705044,0
08:21:00.0,28.62610058,77.25157723,33.53191242,35.53026168,-29.32295927,-50.94532008,-7.342070278,0
22:28:00.0,28.61551635,77.21754203,298.8826396,26.20993607,-1.383217643,-0.839325855,0.120637063,1
11:11:00.0,28.61286057,77.23024397,13.87746854,36.03514637,-81.96600928,53.15267411,-52.69726532,0
23:36:00.0,28.62801841,77.25149059,177.8400721,12.13314457,23.73349147,19.75774671,52.66917297,0
15:38:00.0,28.61581269,77.24268492,7.388487926,43.4362599,92.89385058,32.5125971,-46.52427303,0
22:17:00.0,28.63914592,77.2651877,19.8747356,33.61860278,19.38260776,25.30806168,57.59136424,0
21:11:00.0,28.62389528,77.2401824,500.0,10.49519109,0.896504749,-0.719534656,-1.126877027,1
07:59:00.0,28.63774682,77.2545341,50.36488472,23.87220426,4.804017438,-0.171196351,2.487973045,0
01:41:00.0,28.60925497,77.23008558,378.0611336,18.92752498,69.47383661,11.15949026,-5.388168684,1
14:51:00.0,28.61049041,77.22582181,500.0,10.21296531,-1.683621859,0.106404449,1.817899283,0
09:31:00.0,28.61493402,77.21898777,69.9849789,43.36446773,88.69688788,-38.19863154,1.035261327,1
04:34:00.0,28.62051787,77.2486682,213.0905306,11.18932671,-51.26369928,9.934498386,24.31390131,0
13:18:00.0,28.60546461,77.22854744,500.0,9.270046817,22.50123137,-44.82330963,1.806361902,1
00:56:00.0,28.61704477,77.24146915,107.1211298,22.59818088,54.11163962,58.61672633,-57.96814156,0
08:03:00.0,28.63189153,77.23260815,316.3791197,22.43014358,69.1000197,41.23555785,-0.45402127,1
11:54:00.0,28.62082691,77.23919478,500.0,12.28636215,88.5838595,-14.41869308,0.225172918,1
22:04:00.0,28.63611586,77.25600142,17.40077537,45.23784374,-52.05751207,-5.177587756,-49.60378586,0
01:01:00.0,28.61823599,77.24560237,37.61255088,36.78969541,63.6781069,-5.537902066,0.551855505,1
09:27:00.0,28.60821358,77.23148044,42.99018393,37.23093786,-76.14009605,-24.40515315,56.60134108,0
23:43:00.0,28.6382617,77.24645327,8.477647079,43.62837016,-62.68240262,-36.70697629,-1.977402249,1
09:24:00.0,28.61332314,77.2354083,16.03065403,42.04374218,-10.67042425,53.30973653,-44.92328082,0
07:09:00.0,28.62966585,77.23330853,56.91238202,37.6700089,-72.37833856,-33.98131679,-1.193195025,1
09:28:00.0,28.62310734,77.24650692,10.59909329,42.22687925,1.588665296,0.296003442,0.141013231,0
08:22:00.0,28.62201531,77.24137125,60.05405286,36.75069716,31.5822921,17.57201406,0.063218094,1
07:59:00.0,28.6123712,77.22064299,500.0,8.327794674,60.98540148,-14.5567712,3.250687115,1
01:58:00.0,28.61020529,77.23616834,11.73940287,40.75942513,89.38543468,29.50912199,-56.41098487,0
19:00:00.0,28.64820433,77.27605162,100.3871424,26.70123858,-1.698955613,-1.526872664,-0.946974375,0
23:06:00.0,28.61966318,77.23995821,24.5201037,46.01133763,3.57173476,1.135735841,-2.98185176,0
09:52:00.0,28.62461253,77.24730752,178.3286899,14.3983951,113.8520148,-27.0279873,-39.99542583,0
00:43:00.0,28.62281357,77.23959752,104.8088763,26.21897654,68.66265908,19.44578515,-46.67343886,0
03:36:00.0,28.61006556,77.22402495,318.687612,22.25832375,41.60172457,-36.44401378,0.670084526,1
21:56:00.0,28.63790351,77.25822056,12.21259335,40.95088511,0.863851089,1.466254758,0.382314547,0
11:54:00.0,28.6077698,77.22351537,95.19477855,35.48150086,-28.8933753,19.62346933,1.34082007,1
02:59:00.0,28.6227301,77.24629607,94.74680736,20.78364948,-59.10447846,58.12309461,-46.39738547,0
11:31:00.0,28.64025756,77.25004825,500.0,8.562245984,-17.15266038,-9.660377408,1.330365289,1
23:42:00.0,28.61612899,77.22340115,439.9304434,14.4061228,4.044841358,-0.248128043,-2.190083709,1
20:22:00.0,28.64963876,77.26713602,29.72376362,28.97638561,-25.99052335,26.89164513,15.174428,0
22:06:00.0,28.6153121,77.22156978,258.8416622,22.22023377,-14.18658013,6.678724629,0.212938098,1
08:09:00.0,28.61305187,77.22635093,308.0230663,17.17811894,-71.77802693,14.1100802,-0.204347217,1
08:05:00.0,28.62486758,77.2491555,100.3486987,31.18998713,109.9682225,-30.36242571,5.589779386,0
16:17:00.0,28.62775547,77.24635233,71.34301897,35.95610527,-46.9805888,-9.381097109,1.357793509,1
14:21:00.0,28.62554571,77.25548981,20.66212365,42.68030733,86.58170444,8.533029425,14.99407002,0
01:47:00.0,28.62072335,77.2359025,170.0007541,23.53703225,-2.11057643,-3.924018312,-1.677390393,1
12:36:00.0,28.64196878,77.26886918,91.70345528,24.19316044,62.53474127,44.45427877,26.75669926,0
16:03:00.0,28.64017499,77.24847161,130.4208924,19.49404247,44.54036038,30.8876041,36.4982363,0
03:28:00.0,28.63031424,77.25061853,18.479367,30.55202524,-33.88973863,13.0163804,5.967318812,0
09:26:00.0,28.61769054,77.24583351,179.1626788,12.63936993,-5.230941031,-0.849470656,-1.002997212,0
15:02:00.0,28.62223431,77.23211348,166.3318319,33.10505861,-48.43000935,-25.85086628,3.137167777,1
20:55:00.0,28.62084723,77.25068946,60.98249873,30.99147614,82.19579198,-33.66626741,11.9504385,0
18:17:00.0,28.6329549,77.24192766,60.24111648,30.13036546,-47.89861278,35.71991216,12.65543388,0
09:36:00.0,28.63401691,77.25478404,26.70672511,29.41895547,5.018954809,5.571575472,0.443221716,0
15:03:00.0,28.62414786,77.24704682,30.26424278,42.63793346,-3.660012934,-44.10358909,-32.03867991,0
19:36:00.0,28.61505921,77.2537182,99.78759644,32.76131149,35.20169597,43.55481882,3.003826758,1
05:38:00.0,28.61549993,77.23960802,10.64051515,34.69332095,-106.137214,24.39207761,8.555677021,0
03:44:00.0,28.61304104,77.22192441,376.3472837,18.14827781,31.27287366,-21.62145991,1.267571771,1
22:53:00.0,28.6253074,77.23538089,88.46566856,38.49289577,-54.09241916,41.11912582,1.559673288,1
03:30:00.0,28.60828799,77.23639739,500.0,10.06787379,-2.16694552,-2.146997815,2.614118019,1
01:22:00.0,28.60928164,77.22475491,56.59977835,35.91956766,-58.0708527,-37.4221049,1.883165777,1
16:10:00.0,28.62510549,77.24050301,11.81055892,46.91152768,87.40489234,27.85597785,-3.722810109,1
10:08:00.0,28.61349566,77.22588196,18.75266538,45.50235532,1.004290934,2.057682838,0.165509521,1
19:45:00.0,28.62993502,77.25837875,115.9471621,23.57490822,-29.99691131,-36.93924693,34.47381062,0
10:10:00.0,28.60983628,77.23588639,66.2134218,32.19750217,-57.31435229,-18.64715,23.53047235,0
18:04:00.0,28.61910823,77.24898847,13.46038538,34.17166406,-2.934307867,0.879924036,0.112552734,0
04:43:00.0,28.61193127,77.22118596,339.72859,20.42668973,-24.39778047,-25.16785698,-1.902363091,1
13:33:00.0,28.62069033,77.22716936,401.1819458,14.031252,56.24949268,-8.172902455,2.042725262,1
11:07:00.0,28.61948899,77.2358874,17.11977038,34.97971155,-75.48483265,54.41277848,-45.22434861,0
03:56:00.0,28.61173257,77.2261121,8.008729834,36.40090724,3.40434663,1.807936533,0.258428616,1
10:48:00.0,28.63400746,77.26001171,11.0819217,32.29889032,-22.50282438,22.50483563,16.22131727,0
22:46:00.0,28.62849704,77.24873638,177.7688126,16.42932634,-65.25775378,-2.677235044,50.65156057,0
06:42:00.0,28.63289102,77.24847595,108.9023336,37.46194376,6.17861215,-0.551032587,-2.21335905,1
13:49:00.0,28.6591448,77.2727903,15.28910964,37.93489061,33.23471124,6.17854681,0.188464526,1
00:09:00.0,28.62353607,77.25718796,137.3011648,23.20185398,-0.016956722,1.400199447,-1.764073259,0
16:19:00.0,28.63975231,77.26418517,48.69188037,32.25747412,-98.66679745,10.09170679,-51.31938669,0
03:06:00.0,28.61110767,77.22691915,367.6076167,9.690161856,-1.662044796,-0.641223972,0.922961288,0
00:49:00.0,28.63636674,77.2692146,222.2570371,14.12433736,-36.34330358,21.49193421,11.08439306,0
21:18:00.0,28.6149775,77.24509932,22.21679686,43.18122385,-9.910411721,13.44752769,-31.79678995,0
00:58:00.0,28.62199204,77.2369755,84.43699613,26.43003863,-78.78929855,13.00133375,-57.08559247,0
09:41:00.0,28.64807885,77.2606469,12.37523525,30.56551117,-6.673035435,-0.556935995,-2.412587363,0
18:48:00.0,28.64438973,77.26781778,24.24483012,32.36845108,94.09928077,-42.83455709,-26.78120563,0
12:20:00.0,28.62467017,77.25268264,500.0,7.938685874,4.378088742,34.80253885,1.927902649,1
08:22:00.0,28.66760758,77.28706136,193.5111431,16.8920349,-6.526031335,-1.310847892,0.296803611,0
16:58:00.0,28.63851481,77.23811561,465.2535377,12.32781066,70.51979122,20.81028533,-1.977808313,1
11:39:00.0,28.63453575,77.2385742,291.6656879,21.37288214,-60.75777611,-18.59658022,0.451553537,1
13:24:00.0,28.62226076,77.24719861,22.41157686,35.47590455,107.832241,-15.74534138,-1.823181906,0
09:34:00.0,28.61106489,77.2188229,159.4812936,30.40197353,7.253336208,-30.10146356,-0.493612358,1
06:45:00.0,28.61276235,77.23254779,12.07734319,42.75751499,-57.34349681,-31.74634959,-25.97312423,0
20:25:00.0,28.62874544,77.25994638,37.96621199,40.91896262,-19.34917097,-7.918914501,-52.68691786,0
04:10:00.0,28.61701434,77.24176804,205.6087776,14.69245242,6.317520706,-33.71261575,43.44686765,0
01:20:00.0,28.61491797,77.21880864,183.1513691,26.37473684,11.92697401,29.52055063,2.146565025,1
09:56:00.0,28.62085615,77.24291877,14.67696966,34.99431678,88.93771815,-21.71859675,20.47500123,0
11:09:00.0,28.62316902,77.26315404,10.40528964,41.80483419,0.847078272,3.618709091,1.359256039,0
04:15:00.0,28.62566273,77.23888853,417.9686742,14.96971739,66.14922213,-31.57464532,-1.392523496,1
01:01:00.0,28.62787536,77.25566583,500.0,11.68728043,-45.26110465,1.165374502,1.196040482,1
00:30:00.0,28.60701947,77.23180903,124.5655339,21.61219076,38.89887107,-28.08034713,14.27344925,0
14:15:00.0,28.62304659,77.2375354,46.85930971,35.36404422,-110.9114308,3.602240534,5.250139365,0
11:57:00.0,28.61473319,77.21993012,500.0,8.740774979,2.197303934,2.950073656,-0.298256253,0
09:11:00.0,28.61458479,77.22018125,15.80649223,46.89802932,65.13678771,6.357091737,0.895234157,1
11:19:00.0,28.61853124,77.23713392,67.84361167,27.07923756,-117.413623,-8.066834016,-50.98079316,0
09:42:00.0,28.61381175,77.22587895,447.3609921,8.665680068,28.69805702,-42.47391012,-3.01092542,1
11:40:00.0,28.6239216,77.23637952,100.5110734,30.73231232,6.027000124,0.985563565,-0.896565915,1
01:14:00.0,28.61889799,77.24335302,176.6476413,15.84431355,-74.71239148,-50.92629908,-0.822790883,0
02:27:00.0,28.61018049,77.22982698,462.3582301,12.82434385,2.001738456,-4.275245944,-0.290067424,1
08:44:00.0,28.63856157,77.2627398,196.5316247,13.69933302,-56.92931497,-28.29523058,-55.70893222,0
17:06:00.0,28.62418203,77.25631808,42.43921541,35.62166982,5.049456955,3.965372889,16.32450415,0
07:51:00.0,28.62103989,77.24126567,177.0317643,12.83141799,-34.18754902,-44.80403507,-53.67894753,0
15:37:00.0,28.60363102,77.23046049,7.468595557,32.41517316,-17.27836749,10.45764682,-1.657747075,1
17:30:00.0,28.6186151,77.24016581,7.71387094,41.6078655,65.23504331,7.418500009,26.06163644,0
17:10:00.0,28.61360656,77.22203457,500.0,8.536695456,10.32120313,1.790410887,-0.850257171,0
05:42:00.0,28.61952582,77.23824086,10.32239311,33.65109698,-73.39330532,-27.54381642,50.63645029,0
00:57:00.0,28.61932252,77.24234459,456.1222626,11.64493044,1.148816995,2.321963291,1.468465538,1
17:40:00.0,28.63872875,77.23483338,171.9645964,25.51343918,-41.43026695,42.56006774,-2.034156632,1
03:30:00.0,28.62394514,77.26004155,181.1327196,20.81066145,4.667346108,-0.490221875,0.90781105,0
00:48:00.0,28.62436279,77.25725191,221.9435045,11.51420261,-7.779901655,23.27601399,1.182979135,0
19:57:00.0,28.61473812,77.21793688,44.59875485,42.10706388,42.32482394,23.56878774,2.48251051,1
18:14:00.0,28.61636032,77.23661582,500.0,9.771366696,-7.471099579,0.386869808,-2.421261147,1
08:06:00.0,28.61732301,77.24286669,106.1812104,37.8115374,11.42594711,2.026174474,-1.247487617,1
17:35:00.0,28.61293087,77.22249283,45.4442146,38.85100984,-50.56758127,26.83430914,-2.220299857,1
05:20:00.0,28.60894391,77.23019191,119.932289,24.58167657,-47.38613667,25.18387108,26.84987071,0
19:52:00.0,28.61792059,77.24347905,136.9292918,33.03104415,-32.97748492,-0.505882338,1.544794452,1
03:32:00.0,28.64412268,77.26788736,154.0915947,24.21917189,2.859194352,-0.134689852,4.718988349,0
02:12:00.0,28.62249038,77.2347002,500.0,11.14617304,-2.372580209,2.210326807,-4.499769092,1
07:03:00.0,28.62405243,77.24357254,191.0341045,14.65389162,95.49759026,-48.71601163,-38.17456851,0
08:53:00.0,28.60974414,77.23536585,194.8103571,13.99007022,6.395810564,51.18387939,-25.04712162,0
11:04:00.0,28.66585029,77.28790116,471.5272254,10.78546735,0.541910442,-2.029849804,-1.12565657,1
02:16:00.0,28.6380106,77.25110125,53.13664314,27.2688148,-12.73022325,-43.24655413,-8.863437456,0
08:02:00.0,28.63240207,77.25820164,18.74712008,28.76929738,-3.16321408,-1.211236897,2.966632831,0
14:02:00.0,28.62428882,77.25695804,31.10743932,33.67767434,3.770074572,2.59992661,-2.080189807,0
07:59:00.0,28.62753073,77.24786898,18.04963237,39.90592969,-4.201130891,-1.88509201,1.468151384,0
19:32:00.0,28.61406716,77.22281539,500.0,9.747983402,75.69722464,-26.53070352,0.121665908,1
15:14:00.0,28.6317404,77.25802584,33.17622206,41.22009443,-43.1330413,-42.52488758,-30.55985372,0
11:52:00.0,28.65267511,77.26211443,52.54228503,43.03652814,72.78008057,-12.35597409,-2.408629425,1
21:24:00.0,28.61948357,77.24639834,500.0,8.451679082,-8.250148736,1.969463083,4.038272741,1
09:12:00.0,28.61195055,77.21913124,500.0,9.707618165,-4.867430058,-0.375460851,-4.436475168,0
07:59:00.0,28.62414481,77.25850197,500.0,8.523584227,62.88035838,36.09356582,-2.42454045,1
23:13:00.0,28.64063662,77.2616975,277.2989596,20.00383352,-4.311961002,-1.138645739,3.205125453,1
10:12:00.0,28.62101555,77.24668887,212.6149259,15.46423551,-45.75133012,23.71807727,-48.62393915,0
15:23:00.0,28.61198199,77.22027256,164.9798309,33.09122554,2.208837388,1.287285807,1.010040566,1
07:23:00.0,28.60811128,77.2450723,87.34429224,41.0469408,9.154962372,26.69268753,1.988389007,1
04:28:00.0,28.63147988,77.26288245,176.5336084,14.63743866,-62.33182325,58.79120243,22.5101727,0
04:47:00.0,28.63939949,77.24042358,500.0,8.625298977,55.89195063,4.087524748,1.469991344,1
11:25:00.0,28.61143377,77.22083338,49.19319371,46.98404163,3.400712391,1.331072871,-1.933792024,1
07:20:00.0,28.60830991,77.22322475,500.0,11.48377299,1.053567403,-1.374832192,1.6713377,1
20:41:00.0,28.63022924,77.25549887,141.3893336,12.27946487,107.9233094,28.98126826,26.38548289,0
08:34:00.0,28.61513432,77.22144002,423.9324577,13.75745586,38.12649465,4.707565944,1.506269299,1
23:15:00.0,28.62881389,77.24571323,323.7839365,15.0625897,1.46538011,32.54955538,3.353961352,1
13:12:00.0,28.6177248,77.24217462,55.03733573,38.03736582,-3.956809296,-36.09755729,55.44518002,0
22:10:00.0,28.62367618,77.23872774,331.895518,8.677639519,63.09953547,-44.2754787,3.05690097,1
16:08:00.0,28.618117,77.24555385,71.46442855,29.15515864,-44.62345124,-25.37855919,-25.33124376,0
18:47:00.0,28.63775213,77.2636113,17.36118668,30.40163327,-78.94222747,5.004251222,-17.52391357,0
23:35:00.0,28.6013222,77.2317244,500.0,9.706325346,-1.857021068,1.745061791,1.590639097,0
04:04:00.0,28.61187048,77.226735,302.2421004,14.1646462,-79.64197479,-32.37115057,-0.537270473,1
08:51:00.0,28.63253163,77.26235051,196.2555883,14.52696858,109.7784326,-7.423971678,-40.48113433,0
12:43:00.0,28.63333657,77.26113027,15.76725875,40.97793174,-96.86479145,-15.43322878,51.84790777,0
16:14:00.0,28.62331541,77.26222702,198.5938765,25.68055367,44.50650724,-13.87665306,-1.697089305,1
22:50:00.0,28.60881904,77.23175529,32.9778194,41.51628497,-28.94190412,-24.06203586,-8.40864875,0
23:55:00.0,28.66761908,77.26722544,464.9111831,11.51613492,33.64075286,-44.4608588,-0.316091938,1
20:54:00.0,28.62036836,77.22868063,500.0,9.60168151,-8.924310194,-1.401077676,-2.06438955,1
04:29:00.0,28.61958136,77.25544911,8.650441193,34.66808088,88.45242806,-20.56992362,1.034363502,1
06:57:00.0,28.63274784,77.26355621,27.20592357,38.89946257,-45.56606063,50.53641168,-44.44017051,0
21:58:00.0,28.61526569,77.24006499,500.0,8.91009949,14.81725528,43.11867649,-0.356908032,1
14:44:00.0,28.62915772,77.23222707,500.0,9.927948661,-54.72985423,8.904089709,-1.013039371,1
12:42:00.0,28.62758751,77.24548808,37.04351262,39.41382506,25.73983157,26.53332541,23.85463493,0
22:46:00.0,28.62073007,77.24751889,6.555379314,35.26361127,15.38365977,43.96405959,0.530153377,1
14:39:00.0,28.63299942,77.24950224,64.36424336,30.91099415,8.868156448,39.90830437,59.9732909,0
15:43:00.0,28.63430223,77.25011249,276.0256824,24.34212955,59.46202904,42.32055667,1.117909375,1
06:58:00.0,28.63419296,77.27330223,25.69314575,38.29187708,35.98830281,37.80587869,19.07496277,0
06:28:00.0,28.62247626,77.2325183,500.0,9.476194799,-30.68901746,19.70626568,-4.059562769,1
02:46:00.0,28.61462011,77.22042983,9.930530062,38.87751813,-3.906773437,0.199553852,0.68241716,1
04:03:00.0,28.61757764,77.25795939,500.0,10.17960328,24.99933,-13.34880761,-0.671855123,1
08:44:00.0,28.61009217,77.22472054,71.18758424,35.46002631,7.135807944,0.4589752,1.073039836,1
17:19:00.0,28.6367217,77.25507433,238.7922831,9.630454593,2.686331989,-1.367860558,2.49776988,1
07:02:00.0,28.60825097,77.23077263,63.74052124,34.26559132,-34.54335732,-49.0489171,50.21221911,0
08:21:00.0,28.63672558,77.26436678,500.0,9.101263524,-12.82671794,3.327952942,-2.048106733,1
04:16:00.0,28.64591399,77.2706446,15.44720669,39.07841682,37.83318965,40.82394704,-47.33268051,0
08:52:00.0,28.62614562,77.23595999,12.7854316,38.65334835,1.666203117,-0.905205205,1.503030609,1
17:54:00.0,28.62251535,77.2446368,15.23306375,44.83860534,-110.8573211,29.23604933,-17.43595023,0
08:36:00.0,28.61317155,77.23549851,135.0476511,21.70319194,89.03773073,4.299446259,59.69963063,0
15:49:00.0,28.6180798,77.24704493,12.7592403,38.79239533,80.40673365,36.78831155,-17.4106946,0
03:39:00.0,28.64244267,77.26558388,127.4586175,18.01670539,38.63384764,7.369821091,17.11118064,0
21:23:00.0,28.62166924,77.23765464,500.0,9.534095122,2.280550649,-3.22582952,0.439497796,1
04:07:00.0,28.61113138,77.23528581,176.2255023,17.4128915,44.55717433,-3.147389916,51.33713082,0
16:19:00.0,28.61046258,77.2374156,26.83211307,38.77515185,100.2290034,-48.24623072,13.60457855,0
13:52:00.0,28.63196093,77.25171385,14.05690929,47.3426659,54.01829151,45.71869886,19.84749585,0
15:20:00.0,28.6301124,77.23563718,292.7390714,22.20238679,80.39671808,-27.77586493,-2.410527877,1
04:13:00.0,28.62574266,77.23025155,500.0,9.142656256,7.68112953,-33.87478309,-1.31578915,1
08:31:00.0,28.6250206,77.25397367,12.03697973,47.41851462,-52.8869804,58.88865588,-16.37322767,0
16:25:00.0,28.62376819,77.24268102,173.7248789,14.64512111,-5.971542838,-0.983763925,0.13838557,0
15:51:00.0,28.61439554,77.23671777,189.1688816,12.86154114,38.30061392,21.00027087,38.65106541,0
00:47:00.0,28.63662396,77.25842394,222.2173744,16.59372243,-112.320935,34.84823253,-2.710543697,0
12:03:00.0,28.62248637,77.24594346,188.8674112,11.4796462,-53.66267342,35.03868249,21.79408033,0
23:17:00.0,28.62922988,77.25847241,43.65562319,32.48887801,-5.745743806,-7.512649028,-22.43176075,0
13:38:00.0,28.62038119,77.23418474,9.550432543,41.7016767,-19.71762299,28.20790384,2.0882154,1
11:59:00.0,28.618702,77.24760712,150.4603647,21.71543971,107.4564558,-38.50741426,-23.35760771,0
18:36:00.0,28.63490395,77.2579262,122.6003708,22.90078214,26.90422485,20.07428273,20.03894325,0
09:16:00.0,28.61902652,77.23948205,39.71140002,29.82922002,-4.086952014,0.925429283,-1.477940255,0
17:20:00.0,28.61045647,77.23803884,7.989587259,34.43017347,-1.657333579,0.497107608,2.540612137,0
10:52:00.0,28.60897002,77.23089043,21.41794666,39.6200696,-116.398523,-44.2064707,5.453249774,0
09:30:00.0,28.61490441,77.21890496,123.7368565,39.27378456,-45.51726751,-12.3986893,2.054357133,1
11:35:00.0,28.62864923,77.25909626,77.14136423,29.96718844,68.95512005,13.78601404,-37.80910769,0
19:46:00.0,28.61052739,77.22678413,325.0312571,20.10302613,-53.92863537,-28.8099032,-0.887406919,1
13:54:00.0,28.60918011,77.22531926,500.0,10.07856858,-84.032153,-25.87055704,-3.465240039,1
18:27:00.0,28.61388882,77.21903853,500.0,9.26996016,-32.02677732,-16.66715129,4.057066552,1
21:57:00.0,28.64543617,77.2414427,289.8891945,19.93836378,6.972071734,2.454312456,-1.605948005,1
22:11:00.0,28.62146855,77.24415906,34.0658305,35.79577895,20.53881663,3.776755588,41.81194939,0
15:03:00.0,28.62276227,77.2463686,500.0,10.48119362,22.48758244,17.00458906,-1.209195154,1
16:45:00.0,28.61977095,77.22753938,48.86024968,36.2863967,-39.25769971,-32.57542093,-1.400589221,1
10:38:00.0,28.66097909,77.27648006,49.54130998,36.26377537,-0.849244646,-5.163428823,-0.216578594,0
19:00:00.0,28.61093406,77.22611746,500.0,9.1190705,7.722737751,-21.59291366,2.412665135,1
03:11:00.0,28.62187228,77.24276745,13.80515645,43.16846329,-0.492762606,-1.765691054,2.970031021,0
03:48:00.0,28.63540749,77.25574087,33.30041852,38.8673739,-49.57829581,18.38288184,-7.567871565,0
11:24:00.0,28.61531067,77.23883068,15.88423556,46.25953947,-57.50312935,-48.26174687,5.050767274,0
07:46:00.0,28.63201744,77.23955039,11.31930445,37.97643483,12.64270536,37.85931119,-0.093718406,1
04:27:00.0,28.63159484,77.24627292,8.942260228,37.2668537,52.09973941,0.528054911,0.442297535,1
02:36:00.0,28.62657363,77.2495694,123.5823007,31.08239659,32.47250163,-26.59960053,1.158677744,1
11:49:00.0,28.61188461,77.23325789,19.68092956,44.62103584,86.91468852,49.2464582,-4.061043088,0
19:51:00.0,28.62758739,77.23649263,87.17990452,40.63019776,64.49658855,14.04729334,-0.814623951,1
19:04:00.0,28.62111745,77.23796731,500.0,10.98774712,7.457641861,19.44552817,-1.423673832,1
09:01:00.0,28.60949371,77.2241681,500.0,7.980724037,8.726551151,-0.718507257,-0.246288853,0
20:41:00.0,28.6255252,77.23347648,500.0,10.39594815,1.836875575,0.945249442,1.854412864,1
10:49:00.0,28.61076265,77.22076261,394.8418837,16.97077388,-0.725575074,1.020209407,1.27265817,1
07:29:00.0,28.63971653,77.24957442,378.4440546,13.11758105,-76.67721231,-29.91440497,-0.968821166,1
11:19:00.0,28.61216783,77.22594571,105.8183937,36.54231431,13.79829557,-5.854047542,-3.238266452,1
02:25:00.0,28.62235958,77.23146354,58.12215599,28.17165295,-83.84268178,-9.740510476,2.524509996,1
10:29:00.0,28.63725614,77.26724356,141.6820183,12.21773194,2.647323219,14.45374442,-46.54260493,0
09:56:00.0,28.61265033,77.23829356,500.0,9.634813668,-7.227090416,3.837134058,1.424538515,1
06:16:00.0,28.62506943,77.25437902,200.8753953,10.39102585,57.156458,32.34916091,-39.61458288,0
05:15:00.0,28.63018854,77.25860487,136.4268317,23.99820523,-3.705456275,2.154057536,1.795773058,0
17:39:00.0,28.63672317,77.24994471,13.28410093,44.71814151,3.638105222,0.551108015,2.837600482,0
02:40:00.0,28.61836187,77.23097661,5.139444427,39.67246255,-71.82744143,40.28453769,3.385651399,1
03:57:00.0,28.60859378,77.23571656,207.0781006,16.25623055,-80.38404785,48.83236486,10.66490786,0
01:44:00.0,28.63015882,77.24877334,83.05453908,33.24216918,-45.27527921,-24.78729811,0.650701156,1
10:07:00.0,28.63319776,77.25861187,49.51475134,33.56326305,-10.58289999,34.81766865,-34.6859606,0
18:34:00.0,28.6143712,77.22402764,500.0,8.299094802,70.47440203,3.915492684,0.222872213,1
23:04:00.0,28.60176321,77.23158904,295.6335965,18.5496786,3.267496507,-1.245300487,2.233317678,1
19:46:00.0,28.63014775,77.26060623,64.66907942,29.91990347,5.149488702,-0.482288105,-0.677408426,0
05:06:00.0,28.61095553,77.22125335,256.2651286,23.62833357,53.15654151,18.11613914,-0.955896205,1
11:52:00.0,28.63092018,77.25419666,6.231674877,47.8087785,-54.66880551,-48.74555335,-37.56802538,0
06:01:00.0,28.63346106,77.26085894,81.21374621,43.17521611,3.487441559,0.00977649,-0.632136118,1
06:49:00.0,28.63256994,77.24721596,32.21960394,33.60201873,13.4954938,-2.436892781,19.42311711,0
20:17:00.0,28.64431477,77.26568389,118.0756854,18.66126131,-47.67196859,-29.16413677,51.40858323,0
17:18:00.0,28.60413859,77.23077553,190.5688724,24.56406645,7.82705365,-2.913705168,1.872066738,1
01:10:00.0,28.61500888,77.21867875,500.0,10.82615612,41.24206029,33.91060282,-0.436508624,1
06:31:00.0,28.61730928,77.24338698,117.2555606,25.74316437,116.4697896,48.86525267,-32.98653757,0
15:50:00.0,28.61588625,77.21913865,21.65300948,44.26227617,38.09618086,-27.98593845,-2.722632735,1
13:18:00.0,28.62607435,77.24342639,28.83311579,30.45956887,5.019815438,-41.0263547,-33.7854283,0
03:38:00.0,28.61001008,77.22386602,197.8126867,29.76916481,79.49932062,-42.56479042,0.722283859,1
14:25:00.0,28.6097107,77.22580257,500.0,9.657721587,-4.695701286,-1.056329925,-3.309972288,0
11:57:00.0,28.62856143,77.25062406,5.098912222,41.94598582,-99.81993043,39.04859013,-25.15030456,0
15:09:00.0,28.63211621,77.2294528,500.0,11.55422654,32.69157983,-36.69443909,-3.190490591,1
01:32:00.0,28.63863709,77.24279574,187.9731014,25.03502434,-37.25915771,-38.87725714,-1.540793257,1
01:38:00.0,28.65678003,77.25159623,14.34593952,30.63505894,-4.480750007,-0.169347548,2.023393874,1
21:21:00.0,28.63151768,77.24919232,9.583181424,39.49607429,-1.122836262,2.112827333,2.187981016,1
00:02:00.0,28.6463155,77.27597215,7.880183033,40.86309187,86.60681364,-14.63612758,37.80718732,0
19:02:00.0,28.63501218,77.24956561,67.02151742,33.98216479,-8.789674261,1.21976498,0.232110789,0
03:01:00.0,28.62038822,77.24282602,17.75816024,44.97134756,5.702743843,-0.804137721,-0.160439559,0
07:53:00.0,28.64937589,77.27120997,8.447179304,36.64132537,-110.6290551,-22.23830467,-27.54446859,0
04:10:00.0,28.62025994,77.24157317,140.0689378,23.31170446,20.48825812,1.031807023,-24.91128815,0
04:56:00.0,28.62032286,77.2465994,112.5721691,23.28803827,-24.11866386,-55.92178238,23.89719401,0
01:37:00.0,28.60928038,77.23002896,67.47108543,40.54900879,-39.81167143,23.22075351,-0.412515041,1
04:27:00.0,28.626072,77.25324841,8.516377666,40.13290424,44.02323116,14.46878496,55.4625862,0
19:38:00.0,28.63957678,77.2618241,500.0,11.22551068,-47.44427982,-6.675992538,-0.063491487,1
08:12:00.0,28.6438438,77.26757607,21.33278553,39.78602645,7.011467641,2.47713198,0.320402098,0
04:28:00.0,28.62717518,77.23437508,66.93728431,40.70251915,-0.454377037,2.531610265,1.688394628,1
06:33:00.0,28.63404492,77.24918327,13.89414925,44.49035077,-23.30358201,5.544441844,41.22992573,0
21:33:00.0,28.62321216,77.24365385,152.294989,23.57115642,65.43544599,58.92758158,24.64256092,0
00:40:00.0,28.6115711,77.22210054,500.0,11.34761681,41.96819663,6.59542093,0.649990067,1
17:46:00.0,28.62918576,77.24874065,240.0657195,11.53345394,-48.64088846,27.70538875,-0.745625242,1
18:19:00.0,28.61311822,77.22234242,254.2348833,26.49715701,67.14886406,-31.00386585,0.130858275,1
11:53:00.0,28.61468447,77.22006147,69.30827946,32.98124713,1.964380333,-2.405352985,-2.019614428,1
10:15:00.0,28.60730581,77.22415649,500.0,8.070712529,-2.46234563,1.187432225,-0.730852602,1
15:14:00.0,28.64815546,77.25549143,85.76150135,28.06585317,38.35151262,-11.7181735,-1.332874867,1
19:58:00.0,28.63655191,77.25904609,16.656986,31.07293649,14.1357078,-5.554485394,-2.288901467,1
08:38:00.0,28.62106011,77.2490268,126.0524211,24.72900201,-36.5216636,-20.1342816,18.958939,0
02:40:00.0,28.62162947,77.2405832,141.2579379,20.60811633,-4.634749566,0.395591141,0.129117596,0
22:52:00.0,28.62707254,77.24556422,128.2057347,22.06261833,-13.15796054,39.45909608,-32.51883542,0
00:20:00.0,28.63396179,77.24578179,500.0,8.369700109,-6.83264832,1.262244183,-1.507884877,1
11:44:00.0,28.65240781,77.28405163,54.21586265,37.87482364,2.188915948,0.713533186,-3.252714515,0
00:34:00.0,28.6247059,77.23908647,16.90642325,48.86772719,4.279163489,4.406959684,1.307442071,1
18:15:00.0,28.63349789,77.25936195,12.17031238,33.07518463,-13.88789887,-19.83291933,-1.041978734,1
02:12:00.0,28.61163035,77.22761081,365.6959095,8.267110547,-2.952410336,-1.691557132,-2.155647152,1
08:09:00.0,28.61732885,77.24823252,13.95655951,43.54252712,-76.19482978,-49.85262609,7.668616849,0
01:22:00.0,28.63379996,77.25013176,61.74017304,29.17139303,-18.31440665,-34.73892093,-1.842523214,0
00:07:00.0,28.64228442,77.27063217,139.7087176,23.82001793,81.13447693,-59.39063989,30.74999962,0
03:06:00.0,28.62177893,77.23840625,39.15733876,42.61117688,-109.2629447,-28.55282559,5.827261266,0
12:33:00.0,28.61937517,77.23128664,500.0,11.19007965,52.51481419,41.16869834,1.845877173,1
04:26:00.0,28.61190793,77.22714407,87.60566213,29.42202694,-73.95382056,-43.57090959,0.693480082,1
09:23:00.0,28.62909229,77.22841873,500.0,10.63900236,2.475966213,1.606189913,1.997046848,1
15:43:00.0,28.61857741,77.23919854,19.04384813,36.47636657,72.36916978,36.35368957,-1.236112466,1
12:14:00.0,28.62935229,77.25335969,51.71673924,30.71936187,40.71755228,-52.67459152,-30.29280554,0
07:19:00.0,28.61704429,77.23892072,123.716421,22.94079479,16.27878332,40.10854004,-27.18146314,0
21:50:00.0,28.64795357,77.25792724,278.7801077,14.92725431,35.71435846,-37.3198981,-3.332028798,1
17:10:00.0,28.63016434,77.24945728,20.56251599,30.99099998,-28.04456863,9.371033655,2.860287516,0
01:32:00.0,28.62326802,77.23378685,500.0,8.285934658,34.62368334,36.86778128,-0.364787668,1
15:14:00.0,28.62867959,77.24898943,78.56915843,24.1915569,5.284414916,-2.434249191,1.178734277,1
13:21:00.0,28.62757281,77.24792682,14.29922478,31.01004521,-40.85419113,17.21467467,-24.87271571,0
02:06:00.0,28.62484982,77.2456758,16.96409503,37.98790346,-8.66716464,-39.22729728,45.03675305,0
08:39:00.0,28.63714697,77.26197561,14.78044855,36.11020713,11.85051537,-4.41924597,-0.557467952,0
18:35:00.0,28.60246944,77.23072933,465.2150591,10.55652449,-64.00356993,-40.37213708,4.486507937,1
01:36:00.0,28.6006156,77.2316566,115.1372393,32.54888474,-19.61853601,-42.16222292,1.895011346,1
12:05:00.0,28.64069499,77.26371187,33.15304799,38.12175158,-62.68391109,24.79628448,-3.719740762,0
10:41:00.0,28.62213648,77.2383758,455.6991893,10.09052464,39.13899088,-34.72752098,0.776672568,1
19:28:00.0,28.60881222,77.23616922,195.7256308,21.78313365,42.37898197,-10.90056198,41.47826214,0
12:13:00.0,28.62138323,77.23949155,58.93690714,40.11359477,64.78293127,42.88377638,-0.294977269,1
16:55:00.0,28.63102735,77.25879602,12.31158598,42.57352605,-114.9261645,-41.3077902,-38.57005804,0
13:52:00.0,28.60867568,77.23362515,32.98030474,32.76260844,56.36395521,10.70320552,48.69159392,0
14:53:00.0,28.61682846,77.2436764,198.3805708,14.91372681,15.97346239,-15.59308292,-33.35721556,0
22:43:00.0,28.62225582,77.24447684,133.7831288,26.12753575,-68.25924591,21.68024494,20.57350086,0
18:33:00.0,28.64555309,77.2503787,97.10507797,37.91949187,71.18512727,43.19541559,0.502583628,1
05:55:00.0,28.6309581,77.24856589,8.302976483,39.28794027,-6.612113197,0.870088965,4.449231638,0
04:52:00.0,28.61491145,77.2206034,392.1459374,18.46705037,2.07774102,-3.89583382,2.322730148,1
18:18:00.0,28.62465306,77.24619453,56.29588415,27.74437004,-57.5039515,-10.08149683,57.63303866,0
02:25:00.0,28.63020737,77.25335214,9.849511121,33.85227855,-6.050202864,3.538420512,0.71318251,1
01:34:00.0,28.61496799,77.23925708,176.2856878,12.64472294,-67.23839235,-16.4746644,-45.08009619,0
01:57:00.0,28.62878745,77.23924253,500.0,8.76231019,-39.17051958,43.17353917,0.514645336,1
04:51:00.0,28.61181076,77.221087,19.18576997,38.67953109,76.33506932,6.052917881,3.01574528,1
22:08:00.0,28.64162442,77.24277531,500.0,8.381711662,3.487068265,-0.309636647,0.050985866,1
01:06:00.0,28.6146954,77.24882047,500.0,11.80346117,-17.71134287,11.91928026,-1.540550291,1
21:20:00.0,28.63498761,77.25950794,7.80554121,46.9473893,103.0775101,54.45602694,34.6382023,0
20:10:00.0,28.61021949,77.23249252,18.3114856,30.40383393,-110.4383688,45.56040511,-19.11511101,0
02:04:00.0,28.63868657,77.24291751,465.2965033,12.0144291,85.4061824,41.93793507,-1.508768131,1
23:19:00.0,28.63166671,77.24024561,500.0,9.173967336,-76.85579617,44.78321549,-1.975985835,1
21:25:00.0,28.65074716,77.24640798,36.6955709,37.97286247,-3.619630936,0.395417472,3.05530469,1
01:31:00.0,28.62053618,77.24080627,438.2101551,14.47101352,-6.779749407,-2.961318288,0.015495331,1
06:03:00.0,28.6147227,77.23804429,208.4172811,22.8571335,-1.451466087,0.696036924,-0.211022816,1
16:12:00.0,28.63316981,77.26315789,118.0745139,22.69036747,43.21202572,35.93528633,-54.52440344,0
00:32:00.0,28.62786649,77.24915406,70.74476333,33.34876006,29.92570454,33.40882279,4.608330851,1
01:28:00.0,28.62059314,77.23524863,344.0184093,10.42190814,-30.54955221,-1.238065607,-1.866276619,1
09:45:00.0,28.62517182,77.24327329,10.18283897,36.4931749,-118.6743355,-59.85564461,-6.349007276,0
20:14:00.0,28.6389966,77.25996718,500.0,10.44330561,-37.92448557,-0.574733229,0.578433556,1
02:17:00.0,28.65763748,77.28553822,204.1928417,17.31324644,-66.58628104,31.12413298,-13.23813504,0
09:00:00.0,28.61306431,77.2355625,23.20398139,42.17125986,-33.94460078,40.69795772,16.68112698,0
13:15:00.0,28.60537971,77.22873472,37.19069062,33.41910389,-39.58828651,-35.76396798,2.319341362,1
18:54:00.0,28.63322856,77.24782693,166.6328258,15.48183099,-94.03981529,35.21639851,47.23513432,0
00:08:00.0,28.61779525,77.23472258,237.7994418,19.72437208,1.699966163,1.257215354,-1.201190964,1
06:23:00.0,28.62162156,77.2455969,121.4044896,29.05438818,-78.28781873,1.964037423,-33.97154777,0
11:07:00.0,28.61688046,77.22907432,500.0,10.46451203,0.421782621,-0.62555132,0.386493995,1
15:55:00.0,28.64335621,77.2526801,500.0,9.81394162,-1.382902133,2.503182387,-1.842986259,1
19:50:00.0,28.64113712,77.26395646,10.65477033,41.7924269,1.104262766,-1.246760734,-3.10219626,1
01:18:00.0,28.63608131,77.25218079,361.5904687,20.73984492,20.52645932,6.778049458,-1.045347236,1
23:24:00.0,28.62711871,77.2328191,49.44222584,45.79583531,8.735614094,1.629442729,4.310306092,1
11:51:00.0,28.61264957,77.23095688,61.66689623,15.85731293,9.365984345,8.338228445,-2.546667134,1
01:33:00.0,28.62838609,77.24955283,314.6304652,23.16367861,0.100901552,38.58406049,-0.610229852,1
23:25:00.0,28.62033351,77.22709736,500.0,9.906509439,0.371386747,4.294812288,-2.206738922,1
15:44:00.0,28.66084626,77.26906625,8.20589863,44.84245156,-53.1487074,22.59002441,14.1459933,0
15:00:00.0,28.62128639,77.24346524,160.1467936,14.48384274,108.4872494,-6.611625155,-44.45791595,0
19:15:00.0,28.61490539,77.22301218,500.0,9.447198644,1.460970575,-0.015626055,0.547200802,0
07:18:00.0,28.61714457,77.24018651,14.16911412,45.33327046,-32.356143,-22.70578372,3.790255203,0
05:54:00.0,28.64368805,77.25948712,500.0,8.333057932,-6.298635771,6.70089231,4.210867897,1
10:32:00.0,28.62007167,77.24217332,193.6235596,14.31258468,-112.5154029,-59.11322953,51.06029046,0
17:10:00.0,28.61196271,77.2302245,73.65581269,27.96551218,0.156976944,0.950401282,-1.578286184,1
05:02:00.0,28.61299969,77.25129196,359.1455483,15.44794666,3.323321536,0.172417014,3.545382083,1
06:15:00.0,28.63528667,77.2504828,13.70929616,36.71191675,-59.61997023,13.86812684,22.75139914,0
11:59:00.0,28.64472023,77.24763457,31.97098377,34.61654332,81.46460763,32.09709269,-0.497248563,1
19:34:00.0,28.61651739,77.23575311,128.2786767,27.37075833,75.18684922,-29.4941704,-1.663332744,1
12:53:00.0,28.62672018,77.23999381,137.9314865,11.48850626,-118.9798231,-19.6513054,-45.2388488,0
18:53:00.0,28.64459985,77.27108243,43.42962476,38.80352616,0.422326731,0.985234211,1.700800818,0
02:30:00.0,28.64919487,77.2760732,26.66421648,42.22014195,36.06230958,7.5228717,-47.25418018,0
02:51:00.0,28.60939232,77.23608353,26.06278608,41.81926819,4.743272974,-5.36719998,-2.0066347,0
08:15:00.0,28.63171384,77.23410198,236.546045,22.75695765,83.56815163,26.31727294,0.040477844,1
06:39:00.0,28.61763555,77.25298535,106.2009836,39.29325952,-5.283280843,2.625239591,1.295550893,1
14:48:00.0,28.6236916,77.24988149,159.4989565,14.00744334,0.837414087,2.042287603,0.295832362,0
07:44:00.0,28.61976927,77.23607382,58.51241106,35.92365249,7.863208687,35.32126519,0.405182849,1
09:57:00.0,28.6360345,77.23396127,170.0954155,25.25072204,42.65050945,42.50410857,1.494534705,1
05:03:00.0,28.61882326,77.23839561,123.6433535,21.49049118,58.7404173,-21.48332183,2.306245747,0
08:56:00.0,28.6077082,77.22379158,39.72769401,40.90346663,31.21096919,24.26327695,1.837830187,1
04:26:00.0,28.61103979,77.22077161,500.0,10.32185075,66.79711715,-25.79751135,1.283260735,1
12:56:00.0,28.62202068,77.24863849,196.9952574,16.77376793,37.68789602,30.62378964,-14.70862745,0
14:04:00.0,28.6261037,77.23796266,138.4510773,14.59886906,34.30799317,-49.04801675,37.28008895,0
23:41:00.0,28.60888262,77.23636429,141.9959112,23.88163553,-103.1186621,-26.62702159,0.62845954,0
13:03:00.0,28.62161614,77.24712141,109.9043563,28.49986336,-3.772606638,-0.458572426,2.564300256,0
07:43:00.0,28.63896064,77.2690181,12.03308345,36.35021477,-3.435647668,-2.959473132,-4.818413201,0
13:31:00.0,28.62302818,77.24462114,6.991036211,36.94235076,23.19597029,-34.4670261,-26.72854923,0
06:52:00.0,28.63360672,77.25696297,19.69548217,31.87545567,24.88307866,54.73143335,-33.87236485,0
04:18:00.0,28.61518194,77.21977935,500.0,10.25824848,-2.9498057,0.542863914,-2.638451054,0
11:15:00.0,28.62716807,77.26323317,193.5673022,34.96223322,66.02626617,-0.469834568,-0.591372709,1
04:00:00.0,28.61034113,77.22181844,500.0,8.759264139,-59.71090559,12.18248897,3.689471524,1
09:30:00.0,28.61346381,77.23531693,11.01272335,45.13707462,1.955276299,-43.03242592,-30.66515832,0
06:53:00.0,28.63093229,77.25490964,500.0,10.02028989,-3.328936873,-5.512729975,-3.634215817,1
07:15:00.0,28.64450053,77.25884226,439.7744328,15.61674676,24.62885874,-21.84533499,-0.161881571,1
11:34:00.0,28.6141901,77.23601614,8.534640148,47.41905278,-65.54916282,-26.39886133,28.20751265,0
10:52:00.0,28.62354637,77.2439482,55.57531414,30.30188332,0.903135552,-0.879826541,-5.165216213,0
08:08:00.0,28.62306423,77.24298865,15.04679503,37.184206,-111.6771724,22.91294101,30.23373845,0
14:50:00.0,28.64445178,77.27594306,190.8705596,15.10753079,117.8840366,-20.54224161,-2.230118734,0
05:33:00.0,28.63404561,77.25612373,9.726612024,42.52799016,-92.95352558,14.29416386,-40.16862383,0
01:54:00.0,28.62701021,77.24039618,348.4252356,20.35373662,-2.490984347,1.359703128,2.753300944,1
03:00:00.0,28.62775731,77.25401333,28.47961621,45.01388931,42.77266093,-29.9163396,-30.53069519,0
01:32:00.0,28.61402204,77.24428555,176.0933677,13.46592624,-99.87371207,-10.09686471,-57.31578631,0
11:47:00.0,28.6284462,77.25357733,103.4932693,21.82243955,-3.780734169,0.086432309,0.394740753,0
13:40:00.0,28.62850786,77.23659922,140.7420138,33.78477175,-83.57663272,44.54371746,-0.035614772,1
00:37:00.0,28.63169907,77.23970256,500.0,10.76307758,-58.92730836,13.19854837,-0.326065654,1
04:57:00.0,28.64360986,77.25794289,500.0,8.534377972,3.127519131,4.990195452,-2.069538931,1
14:41:00.0,28.61346662,77.22627932,50.23110409,29.55161834,3.907526919,-0.592824873,2.840234729,1
08:48:00.0,28.62823853,77.26385927,207.4427508,16.0819031,78.46028731,14.57633507,32.0444031,0
11:04:00.0,28.64055558,77.24523379,500.0,11.17375067,7.404793201,1.093580218,-2.259720408,1
08:57:00.0,28.64955389,77.24756812,257.0337795,21.91821604,-70.79333059,-38.48039285,0.760170897,1
04:55:00.0,28.63431942,77.25113123,17.49641224,45.9267342,86.41012095,47.24060103,-41.2204861,0
08:28:00.0,28.62894593,77.24982309,71.55036168,29.52630417,-96.6903295,-56.2361074,1.37474593,0
15:32:00.0,28.61873285,77.22944966,500.0,10.9234238,-76.61983786,-31.24399832,-3.534493611,1
17:59:00.0,28.62260864,77.23611066,401.4416608,14.01432919,0.962851255,-0.185074939,-0.307199951,1
19:58:00.0,28.61020305,77.22690024,500.0,8.83337777,78.77595155,2.114852333,-3.396382576,1
01:28:00.0,28.62156858,77.25094693,17.47782157,33.70067485,8.313832283,1.837233677,0.040286382,0
02:29:00.0,28.64602595,77.26987714,222.2406224,14.07213698,-41.49461476,-18.21787916,9.767827423,0
12:35:00.0,28.61051897,77.24877811,425.6502541,14.1116185,38.03388614,-10.56482519,3.509650588,1
21:28:00.0,28.62534911,77.24793479,500.0,10.92225842,-73.00594901,-44.54613021,-1.354652345,1
14:27:00.0,28.64038341,77.24443668,96.66435067,34.15365265,-2.442197735,-0.627777892,-0.98731444,1
16:17:00.0,28.6489846,77.26336678,43.77764117,36.09996938,-12.95377277,37.52010083,48.86827865,0
14:53:00.0,28.64302338,77.26895668,173.087293,13.75786976,77.02395807,-32.15781061,-3.833653812,0
08:21:00.0,28.64951483,77.23842322,412.5850672,16.94931147,4.238045013,2.412280071,0.27083507,1
05:42:00.0,28.63252691,77.25179427,450.5284596,10.91323952,-74.50520631,-20.62129039,0.548457802,1
07:52:00.0,28.63080787,77.26383022,103.1914232,23.60467562,-21.48401055,27.9737401,-23.90654507,0
05:43:00.0,28.63723951,77.26007665,89.13566317,23.53310482,-68.08210724,-48.28135742,-32.21737424,0
06:23:00.0,28.6182134,77.23523979,500.0,11.03569306,79.31823012,-17.35766986,-3.175453892,1
13:01:00.0,28.65802969,77.28521903,176.1286647,17.11613506,-78.06090721,28.15049715,2.599289384,0
20:36:00.0,28.61047241,77.23671599,66.95825024,39.36364458,-81.30863585,24.01059984,53.70757981,0
18:52:00.0,28.62711745,77.23897784,500.0,10.48658332,35.09070193,3.43412304,3.754035732,1
03:57:00.0,28.61857558,77.24691222,17.60303308,34.87978912,-4.309877993,-0.31691717,3.031554616,1
11:06:00.0,28.62894565,77.24835629,11.04339701,44.28821208,-97.98269658,-50.35273347,-53.01072769,0
17:52:00.0,28.62826847,77.25440895,49.1218661,28.75491924,-45.47484077,31.53972341,-18.6716914,0
04:34:00.0,28.62492681,77.23758076,338.2847611,17.93399296,-80.17038583,23.50810698,1.170268003,1
06:40:00.0,28.62547181,77.24202652,23.99786693,46.6509977,-104.7569738,35.91181313,-46.28480925,0
11:47:00.0,28.63752878,77.24900199,68.00802445,7.59652092,-64.48877594,0.29540743,-1.192193769,1
18:44:00.0,28.60241282,77.23054168,152.1505911,27.29086126,-3.521288892,0.743427186,0.032504921,1
03:01:00.0,28.61913658,77.24103525,14.33950582,32.92606583,55.37607979,-44.22137232,-20.29545667,0
08:23:00.0,28.64613092,77.27838845,53.15467605,35.33036777,-0.211639775,0.816930972,-0.821410144,0
00:05:00.0,28.6079763,77.22403994,114.0230144,30.82300416,4.787825318,0.140646785,0.673291822,1
00:02:00.0,28.63232239,77.24431923,107.7965763,20.30014354,0.201359704,-40.79955178,56.68371641,0
23:48:00.0,28.60875079,77.23192637,32.18486162,38.30837751,1.474628786,2.626300206,-1.473368091,0
17:09:00.0,28.61422311,77.21890488,500.0,9.461559964,-33.49189607,-44.46638761,1.657573496,1
16:04:00.0,28.62653886,77.22878145,138.1073585,34.7258306,55.56527541,33.4270655,0.380573404,1
00:17:00.0,28.63865019,77.25007538,15.41901728,40.04836641,-4.912819473,-0.490932597,0.054936726,1
01:39:00.0,28.6521618,77.25908951,387.4328416,16.32766555,66.67994071,-14.50556614,2.057942259,1
11:53:00.0,28.6390001,77.24381781,500.0,10.76446985,0.781126581,-0.431769048,0.567423015,1
07:19:00.0,28.62540085,77.24503337,500.0,10.20471079,-39.34219787,-17.06705444,0.102360663,1
21:18:00.0,28.60234904,77.23015362,500.0,9.340358972,-56.30323277,-27.40678585,0.168736678,1
16:15:00.0,28.63781791,77.26795901,84.67226297,27.14476032,-89.7424354,-44.92298333,20.73200098,0
04:33:00.0,28.61708103,77.24502676,13.63676238,34.63899262,-82.88435411,14.35034351,-1.728714427,0
10:58:00.0,28.6659723,77.28009542,500.0,9.766427992,2.337954049,1.086580886,1.304464187,1
08:07:00.0,28.61286822,77.23845604,47.70693851,28.12072327,1.162322703,1.048816664,0.599480653,0
23:45:00.0,28.61433507,77.24419704,115.1632252,26.78850553,79.26492737,-23.0923243,-37.34388026,0
23:39:00.0,28.60891071,77.23639807,169.2982463,19.64835757,106.9185345,17.39395992,37.48557428,0
06:54:00.0,28.62470572,77.24499856,13.14843753,31.55963975,26.15298442,-19.44445807,-7.532028486,0
15:33:00.0,28.62312632,77.24418463,65.9059175,32.09139037,-78.74213997,3.202319639,-0.469381315,1
14:16:00.0,28.62982957,77.24355055,469.0094594,9.592098201,36.41201363,34.44703868,2.904691691,1
05:34:00.0,28.6090451,77.23573312,76.83346792,33.00715711,-9.656703375,-44.01253974,-30.37719326,0
17:56:00.0,28.65960236,77.26257144,242.0380046,9.458516797,5.694033204,3.674891839,-4.003726278,1
08:25:00.0,28.64061458,77.26611317,31.77984135,39.44838193,-2.38555278,-1.008390934,-1.445230394,0
12:47:00.0,28.60527445,77.22874203,500.0,8.81125417,34.80932954,4.313732474,0.103050544,1
15:05:00.0,28.61792433,77.2387813,127.0283722,26.53348322,73.45457494,22.30584549,0.841118959,1
16:16:00.0,28.62083694,77.24517963,123.2423456,29.21402519,-4.86742057,26.2104185,-1.54700623,1
00:55:00.0,28.62727586,77.24756598,125.7659891,19.52541716,83.17697952,9.157476456,-43.66472246,0
13:15:00.0,28.64116536,77.26808989,176.2202014,33.53754924,0.151683249,-2.754178634,-1.979654162,1
07:05:00.0,28.60830999,77.23084267,39.24630602,37.24225739,0.859711899,46.51449923,-51.98686313,0
18:53:00.0,28.63724124,77.24555311,500.0,11.74947096,5.672905587,-8.252559404,-0.812310817,1
00:28:00.0,28.63132381,77.25441651,53.41914176,39.87135888,76.51370763,50.89990497,-16.76729269,0
21:26:00.0,28.62955132,77.26397288,391.1892547,15.9929701,-2.186588791,-0.562068644,-0.486721843,1
03:05:00.0,28.63275659,77.25020089,18.93260051,45.7742524,2.408183006,-0.970065028,2.152515539,0
18:40:00.0,28.63294763,77.22439539,12.08326125,33.77872402,8.310244366,-9.809116937,0.145821359,1
11:00:00.0,28.64611492,77.26020951,38.78345095,36.56804229,58.16556153,11.99693894,-1.417809111,1
16:41:00.0,28.65564143,77.26972589,228.2972873,9.538281876,42.50168937,-2.235669639,2.043774275,1
16:20:00.0,28.61044939,77.23742015,20.00804325,42.48385867,-81.68967189,-29.45828743,41.84705229,0
06:54:00.0,28.62004482,77.24016654,34.64341679,42.5440185,-71.56518048,-29.06734877,48.15050685,0
10:26:00.0,28.61318351,77.2393049,148.3601696,28.11725532,43.23374936,-30.09353357,0.91716122,1
16:44:00.0,28.61096755,77.23311296,38.11586241,29.4362135,118.4309934,-57.3138993,-0.661682408,0
23:12:00.0,28.65154105,77.26462307,321.8391677,18.06926428,-1.329274313,-1.730757981,-4.087722289,1
09:48:00.0,28.61371917,77.23521673,191.7325965,17.75926582,-64.49033115,18.9102014,-49.7744051,0
03:54:00.0,28.60749062,77.23152767,24.56414415,37.39231867,-24.86775147,-22.75506512,0.815152915,0
19:05:00.0,28.64275398,77.28253717,19.72858093,30.3881495,4.844847677,12.20557956,-36.93506796,0
16:50:00.0,28.61085034,77.23315501,25.85940322,32.98845344,-82.44430349,29.63817903,-14.90212556,0
14:42:00.0,28.61339831,77.22612866,11.20712079,31.18000727,6.886783194,0.87749401,1.285947592,1
05:42:00.0,28.60963417,77.23149582,7.646378175,43.91646645,-16.44653883,-13.28825655,33.0328332,0
08:07:00.0,28.62625934,77.23572764,12.21453082,43.48154133,-13.70855604,-22.04493248,-0.866440114,1
14:38:00.0,28.62513692,77.2611966,171.8848159,16.98132036,-84.54093406,2.476281153,-47.04681132,0
22:14:00.0,28.62372038,77.25111993,25.34240758,36.45294089,1.644769774,38.7379935,55.13829792,0
07:42:00.0,28.63782323,77.25499318,500.0,11.15858079,-37.02530093,31.22268015,-1.324051085,1
01:01:00.0,28.6121775,77.22990537,49.95191723,29.23525773,42.26910096,40.29694593,-23.95118408,0
05:37:00.0,28.62976446,77.27222652,8.69150059,39.56429717,-2.883972046,-2.073067558,-3.852632597,0
07:35:00.0,28.62148889,77.24663484,52.89691153,31.96741448,1.048178324,-4.366320032,-1.851692706,0
00:59:00.0,28.60092566,77.23175948,500.0,11.37325715,82.68992618,-27.25363707,3.273081606,1
21:16:00.0,28.62219891,77.24287744,18.66336507,44.64126353,49.76939807,-41.66781163,-54.01854493,0
04:09:00.0,28.61396285,77.24828215,293.7309661,26.82728894,3.800872878,-1.301514775,-1.540315445,1
17:23:00.0,28.64408145,77.26456708,215.141597,10.81521184,8.241496205,1.849984154,3.861216959,1
17:09:00.0,28.61637142,77.24176887,14.7999739,33.16548517,-104.947862,-30.8355132,18.06304223,0
10:27:00.0,28.63874484,77.26054749,193.4902575,16.92386051,-108.019432,-30.48287279,-38.54272454,0
19:46:00.0,28.64371971,77.26580681,123.0395796,18.89938368,-1.089465371,1.323618894,1.267227817,0
13:59:00.0,28.6092858,77.23024054,162.1791669,10.15083951,37.52848649,-34.92665477,-0.601822087,1
06:35:00.0,28.63090106,77.25051897,108.5345655,23.06850905,107.7120196,22.47191898,2.245894938,0
19:46:00.0,28.61380897,77.22246928,77.21311423,42.97978315,68.98013106,-2.053140348,1.57097537,1
05:09:00.0,28.60864914,77.23023796,25.06086913,36.24546683,-75.29354432,24.24116931,-15.59547399,0
01:44:00.0,28.60972597,77.22478056,431.2924908,13.89278672,-0.143179808,-1.638155307,-3.548718887,1
04:56:00.0,28.63623564,77.26842048,111.2201005,29.8678757,-7.497975918,-1.26336593,0.376380143,0
05:36:00.0,28.63896997,77.24963698,500.0,9.838685873,-13.34163073,12.88520698,-2.913583927,1
07:57:00.0,28.62586184,77.23796084,500.0,9.448120536,2.781761174,2.154798005,3.519401661,1
17:32:00.0,28.63032236,77.25863012,16.18780777,43.74668719,5.067240788,2.278492076,1.158259577,0
01:42:00.0,28.62937508,77.25042284,12.94347644,40.42053924,-59.05813782,57.74247796,7.065295858,0
16:54:00.0,28.61074639,77.23310608,12.91928101,35.97816395,-19.28697322,-14.52192625,-34.86426601,0
14:44:00.0,28.61127386,77.23707043,199.9459859,14.75827902,79.29202831,-0.620001995,-55.95436049,0
04:15:00.0,28.61634598,77.23992474,24.65680637,36.8284934,9.901371304,58.24624612,-1.97087171,0
03:35:00.0,28.64479227,77.25661437,113.5299075,29.33193755,3.408027717,0.260854254,0.606204208,0
00:56:00.0,28.62117053,77.22570257,500.0,10.05594818,-12.47319507,-0.21242995,-3.114819811,1
13:02:00.0,28.65055246,77.2639304,8.426464247,43.09259123,-3.445774006,-0.015082581,-0.464409356,1
12:11:00.0,28.6499724,77.27332488,194.3156951,10.67023142,45.25020356,-37.73885681,-17.61171696,0
01:16:00.0,28.6175994,77.25253095,122.5176985,34.80157233,-25.19950745,22.34504577,-0.968338808,1
21:55:00.0,28.61766696,77.24634583,24.66465687,42.04570561,34.39441954,17.0218747,-50.06399286,0
06:32:00.0,28.61355643,77.24482838,42.4880267,33.39397891,-17.64637163,-20.48443001,0.682551373,1
23:54:00.0,28.61533753,77.21805407,500.0,10.88234185,26.87906015,43.11091472,1.928892761,1
06:56:00.0,28.63353382,77.25498761,16.55510388,34.9596409,109.0679723,-42.85012671,58.6006241,0
13:30:00.0,28.62016556,77.24931035,113.0500162,20.22486465,89.75582213,-33.38645777,-1.527458364,1
18:44:00.0,28.63208182,77.2508334,152.3321951,22.14895563,107.5178342,-46.2411304,24.9194036,0
00:42:00.0,28.61200412,77.22209995,419.3812137,16.07780814,6.295159713,15.45164705,-0.612685063,1
07:30:00.0,28.63142836,77.2372212,500.0,11.22969739,-2.459749326,-1.58784331,-0.55211809,1
18:59:00.0,28.6287981,77.24088342,76.45289198,35.91315661,-45.1539036,11.7958199,-3.33628289,1
06:47:00.0,28.60059757,77.22957919,241.7066139,27.68768392,2.773307589,-1.739286807,-2.202732577,1
14:14:00.0,28.65452744,77.27982482,15.43445234,38.02462551,-7.613872074,35.62864449,36.93237563,0
00:10:00.0,28.62078003,77.24966988,500.0,11.12538616,40.23673882,-0.81648018,-0.158540142,1
09:33:00.0,28.6315546,77.25638494,14.65598477,35.88470941,6.466660831,2.36259974,-3.30449955,0
21:28:00.0,28.65211519,77.24280734,500.0,9.614075478,-4.055409566,-1.278581451,-0.370637624,1
20:38:00.0,28.62850047,77.25504604,180.625896,19.50341746,65.60161814,22.13278052,-26.28653671,0
06:26:00.0,28.6150516,77.24527937,161.7418845,15.35087723,-86.05566238,-11.85142085,-36.31493558,0
05:25:00.0,28.63758952,77.26834626,13.05202754,41.25718848,-68.0173565,46.05701633,33.21255596,0
03:45:00.0,28.61061295,77.22197555,500.0,9.466622658,-10.91246106,-1.575962922,-0.880917148,0
08:46:00.0,28.62325333,77.2450768,500.0,9.068941835,-89.34159213,40.99216757,-1.719035507,1
14:03:00.0,28.60940297,77.23031156,163.556919,9.687238152,-40.64122027,-2.344223733,-3.95014769,1
23:08:00.0,28.61561958,77.22813886,500.0,11.64226267,-48.23730195,-11.17424343,1.433930357,1
13:48:00.0,28.63413599,77.24592008,500.0,9.903711881,-56.86266685,-17.90696602,0.961877891,1
08:49:00.0,28.62185862,77.26003101,13.30103464,44.84263236,10.46565251,19.04645566,18.96531605,0
09:18:00.0,28.62510503,77.24603733,33.45706053,41.07359207,-31.6685383,34.50068008,-59.19928618,0
20:18:00.0,28.62303931,77.2407814,450.9287938,12.94029365,61.20192305,-37.55275869,-1.001445426,1
04:47:00.0,28.61133051,77.23581335,16.22968718,44.9342417,91.24845963,-19.61843863,27.55995047,0
09:06:00.0,28.61297559,77.23782197,336.2755095,19.09567182,38.26879912,31.34932885,3.194344693,1
05:21:00.0,28.64002292,77.2593402,115.8433436,16.04127232,-115.3535717,25.32446944,-13.97167675,0
15:18:00.0,28.6114077,77.23020029,212.1160333,9.770761512,1.260072209,2.919864261,0.645618858,0
11:11:00.0,28.61126577,77.22084622,500.0,9.685218436,18.06520687,-4.036065444,-1.184654437,1
03:33:00.0,28.61728527,77.24858013,92.07430981,29.56367106,-1.725864664,45.32562109,54.48831776,0
17:40:00.0,28.61622526,77.24269208,360.8853612,18.28754879,-3.428927302,1.657999514,2.202865894,1
05:55:00.0,28.62318448,77.23465332,500.0,9.824812645,-6.709651233,19.57464341,2.245621141,1
10:38:00.0,28.65046006,77.25737127,71.47484184,23.94270466,-0.27075795,26.48952683,2.156863245,0
18:15:00.0,28.60283714,77.23098806,117.6970105,37.12013681,-27.84110009,29.06271457,-0.044986421,1
12:31:00.0,28.63156975,77.23469081,221.4941002,20.99329521,-44.98515184,-31.87018077,-3.71212134,1
00:12:00.0,28.61424634,77.24794764,500.0,9.0642601,-61.77004258,-6.435912391,3.472929002,1
04:48:00.0,28.626037,77.24323328,500.0,10.16662653,-4.645647055,0.729904345,1.780564162,1
05:01:00.0,28.63684007,77.25234442,402.7146413,15.81623987,-34.92230591,36.90315643,0.462934711,1
09:11:00.0,28.61195514,77.21916787,500.0,11.84878524,-0.84477967,-1.501677206,-1.485538383,0
04:34:00.0,28.63452429,77.25685792,104.7868973,21.94205458,0.069358353,47.5494195,51.90875151,0
00:32:00.0,28.63316848,77.25000118,14.05473099,35.685385,-81.05115515,14.73608394,-29.38420206,0
16:09:00.0,28.63590515,77.27263189,41.24088604,35.99504828,-13.79009187,-31.79316828,-11.1638438,0
05:57:00.0,28.62392611,77.25013545,191.8318755,14.05825853,49.54326885,-30.36625549,-16.44932736,0
20:01:00.0,28.61911332,77.24119612,172.3495839,20.68011438,21.62362681,-34.40400166,-25.71882239,0
17:46:00.0,28.62011853,77.23890207,500.0,9.717582259,-1.171550968,0.265516704,-4.415186473,1
09:41:00.0,28.61500908,77.21888942,500.0,10.05634979,42.90982943,25.09791199,-1.326589965,1
06:10:00.0,28.63424212,77.24074499,195.8535341,26.07654854,5.938696199,-1.040304718,2.198617061,1
11:39:00.0,28.63819862,77.24530513,103.4970531,14.41602348,26.80380495,-25.9679334,-31.93352176,0
11:35:00.0,28.64602047,77.2580884,27.70914303,43.34962511,12.35509385,-57.28317873,-37.79228631,0
13:01:00.0,28.62579394,77.23996289,136.9778015,14.51490908,-87.21995224,58.40039748,-50.76288011,0
01:47:00.0,28.62642471,77.22714471,500.0,11.89776742,67.73100364,10.00286315,3.859926505,1
18:22:00.0,28.62142723,77.23462944,500.0,11.13181755,-31.43926374,31.3672655,-0.032775314,1
05:39:00.0,28.61274385,77.2323442,20.25103755,40.71130577,84.23870121,-18.96346294,12.23839704,0
10:26:00.0,28.62429936,77.24240875,142.534644,14.39215072,25.09386972,-24.59877576,-24.35073516,0
08:19:00.0,28.62617588,77.2535891,500.0,10.76935352,-7.194401601,-1.17255332,2.546179216,1
03:22:00.0,28.61086088,77.22248478,56.58094624,44.99368894,-48.33971128,-5.907119667,1.548749383,1
18:41:00.0,28.61100992,77.22645581,14.77985218,30.8508899,1.834868134,-0.044432557,0.081786165,1
01:16:00.0,28.62783852,77.25388466,27.47884216,43.264503,-16.3791896,-13.86130076,-36.56828633,0
14:00:00.0,28.61003363,77.2357996,119.5381788,25.84524762,-23.78415305,-11.3348633,-47.81332248,0
01:53:00.0,28.61703189,77.24944107,500.0,9.112162906,0.057150442,3.21021902,0.534186609,1
08:54:00.0,28.60774012,77.22370651,68.26620352,39.13874973,22.33873906,-0.291744475,1.137359864,1
01:38:00.0,28.61986559,77.23843259,101.3155373,21.63301173,-48.51744477,-29.02133609,50.10626213,0
09:39:00.0,28.61424586,77.2441695,5.891797692,34.85944829,12.61558343,32.88955187,2.896626595,1
10:31:00.0,28.62988014,77.25179919,15.92197195,41.78205748,-4.795258793,0.466005638,1.065957859,0
02:31:00.0,28.65178398,77.26959624,114.7662501,11.84135043,-115.5795239,-12.70314255,57.15211371,0
09:42:00.0,28.63878594,77.26361221,12.47108942,40.40799057,-8.303568126,-49.45056038,-52.25867983,0
10:38:00.0,28.64211774,77.27750718,42.06929442,40.6019116,-12.387329,33.89057136,53.02837092,0
11:32:00.0,28.65240857,77.28376191,17.90792544,48.29536991,72.01620759,-11.12711157,57.85993649,0
01:24:00.0,28.61505541,77.2492769,84.30538693,33.80327967,54.69042261,1.666009752,-0.348033897,1
06:07:00.0,28.62767347,77.2555111,97.71048543,17.5337747,-76.78880369,-13.39776568,5.2469674,0
13:57:00.0,28.61931978,77.24657763,157.6372202,20.59534529,6.138925683,-53.04165151,8.892724944,0
08:09:00.0,28.59955628,77.22950237,21.20973684,39.71004234,-40.56405244,44.61315877,-0.066656347,1
13:17:00.0,28.63859119,77.25239064,89.44841678,38.95463176,-4.996531277,0.007261035,-1.952104839,1
02:36:00.0,28.61393384,77.22192684,7.193108714,47.39055264,-7.059199134,35.30921717,0.343240488,1
23:00:00.0,28.64294372,77.25375689,500.0,8.996318472,-4.763449834,-0.555655493,0.494859097,1
00:44:00.0,28.62279384,77.24674565,92.38120904,27.68135303,-95.26667306,26.21837578,10.30758376,0
11:37:00.0,28.61170576,77.23336494,14.38422328,33.10697079,25.99378104,55.01138797,-45.2493332,0
12:11:00.0,28.62348015,77.24217862,79.33189921,11.64303572,-67.75396741,-25.02057622,-2.109939179,1
03:35:00.0,28.61321836,77.22128687,196.8241653,27.01644266,-31.62093154,3.779830705,-2.576692893,1
20:51:00.0,28.6235631,77.23987722,24.96563489,35.92535325,-46.61626477,27.80281436,-26.3606388,0
14:24:00.0,28.68232674,77.29609264,62.83555876,38.25763479,48.41874234,-21.2168635,37.88884229,0
01:05:00.0,28.63347015,77.24126758,285.4340283,23.07242676,3.41999882,-2.364142727,-1.307816799,1
22:27:00.0,28.6274643,77.25884174,16.70595849,40.24222901,-8.202373498,-0.662714579,0.019259938,0
15:46:00.0,28.63469861,77.26250185,500.0,9.953270806,-85.49392657,-4.555186095,0.060363967,1
00:57:00.0,28.62730905,77.22787291,500.0,9.225468338,3.807375745,-2.645915068,1.787518827,1
22:39:00.0,28.6304101,77.24062535,451.1381816,13.34294845,-4.437759624,0.709007459,0.79880219,1
00:16:00.0,28.64013715,77.24874876,157.6235082,34.89086248,1.483191933,-1.877310232,3.344975345,1
10:58:00.0,28.65682527,77.24533955,79.36753493,33.76387994,76.27511097,-26.47521789,-2.966011243,1
02:59:00.0,28.63011171,77.2513283,500.0,8.524537287,-8.428063493,-1.725741226,0.256104435,1
22:02:00.0,28.63819539,77.26244687,51.86010776,36.53578363,-51.61259576,58.4197782,-49.77471879,0
09:31:00.0,28.62976345,77.2336618,322.4832854,17.13319517,53.21020467,35.89659751,2.019185455,1
11:09:00.0,28.60886291,77.23099767,103.5770907,21.42699888,-10.32564458,-1.936910196,-0.553081605,0
23:23:00.0,28.62354043,77.24573151,135.9192397,16.54270209,-3.607232862,-2.010000813,2.129819968,0
22:29:00.0,28.60944472,77.23311569,35.4848818,29.73338062,20.03571532,39.75441545,40.40997791,0
05:51:00.0,28.62665804,77.26348055,500.0,10.72538306,-71.72365093,10.59619525,0.752340044,1
23:23:00.0,28.62674804,77.23098206,500.0,10.61434815,-10.65334511,-43.63870876,-1.395581361,1
02:11:00.0,28.62577943,77.26112883,22.60348651,40.50050333,98.24189788,-17.90633421,-26.48694495,0
02:07:00.0,28.60936352,77.2362677,94.6839231,32.97370257,-85.74576027,-45.75483966,58.34388146,0
01:38:00.0,28.62174368,77.24103415,115.5653378,13.56135609,-65.61533026,26.77534302,-39.67177593,0
18:49:00.0,28.63349746,77.26553359,91.83076713,31.40149481,-79.2141332,44.32816338,-57.01841388,0
19:27:00.0,28.60878947,77.23618575,219.5270237,18.89768421,-48.88536142,-53.30959198,39.06317735,0
11:49:00.0,28.66490983,77.28621397,14.97607877,38.20308159,2.086461981,0.784537084,-0.489901296,1
09:55:00.0,28.64199298,77.25306642,52.77187083,43.35225537,-58.62039099,-41.83915361,-1.192643513,1
01:35:00.0,28.615613,77.23871134,183.4282069,16.47363714,77.36189326,-5.427412752,0.920918114,0
10:09:00.0,28.63585601,77.2659153,9.805184923,39.98653968,-35.57309376,46.54194368,27.72804115,0
19:43:00.0,28.61039761,77.22654106,456.2578143,12.02710235,-26.29383358,-6.170756579,0.30532682,1
21:07:00.0,28.63976833,77.25509791,18.10173736,44.99284789,-46.3870334,36.68830783,31.99014561,0
15:57:00.0,28.61400142,77.22558729,500.0,9.21804243,51.43296777,21.59953304,0.339008511,1
16:50:00.0,28.61316367,77.22194039,500.0,11.19798398,0.569882938,-2.238909142,0.103813089,0
21:24:00.0,28.62709546,77.24404818,178.7221249,26.28690242,-26.93044928,19.98879097,-0.429531546,1
11:17:00.0,28.62344811,77.2618036,106.0151028,41.89936647,-60.98569786,-23.92625957,-0.306955141,1
