timestamp,latitude,longitude,altitude(m),speed(m/s),yaw,pitch,roll,label
2025-04-02 08:09:52.829866,28.612991588090654,77.22938439059853,53.478509625518896,11.096594402429645,-13.233668314005474,1.0228066886564764,-0.6004442883666699,0
2025-04-02 08:09:53.829874,28.631556443460315,77.24500399831234,58.156782649805194,9.419774185700623,3.281980921431434,0.8023834964761178,0.9764752598403944,1
2025-04-02 08:09:54.829875,28.62005259672467,77.24377915536975,58.67880960230592,10.087567064719531,-7.847358223600693,-0.2984369002610596,-0.8145961884148356,1
2025-04-02 08:09:55.829877,28.624042648453372,77.23688727035338,54.47622483094267,9.998276981011069,6.934996585362859,0.5814565439985347,-0.3809382024673701,1
2025-04-02 08:09:56.829877,28.630151017618235,77.24049575323116,54.616451458918604,10.89968898636596,-1.855460297340714,-1.4357437151243861,-1.5806548358818606,1
2025-04-02 08:09:57.829879,28.62760049838291,77.2489617249446,56.83798438393113,10.872697948201973,-1.843492207567624,-1.9061526078155817,3.5585588965619173,1
2025-04-02 08:09:58.829879,28.626894630092483,77.24880811091471,52.274156479985834,15.21346493252068,0.12315976220199609,1.0842174407351102,0.12754069799987808,1
2025-04-02 08:09:59.829882,28.62122042111182,77.24474509636413,47.71032857604054,19.554231916839385,0.6714491479093226,-0.011786267618644715,3.880854589241349,1
2025-04-02 08:10:00.829883,28.61320911930521,77.22949874325354,43.146500672095236,23.89499890115809,4.14154014683653,1.8773751478015421,0.7161657351768332,1
2025-04-02 08:10:01.829884,28.61308062649895,77.22949076997484,38.58267276814994,28.235765885476795,-4.263584840911116,3.1814000213531504,2.8702401018832586,1
2025-04-02 08:10:02.829885,28.61274394290952,77.22949242890674,34.018844864204645,32.5765328697955,6.244997014575414,-3.366997010576295,-4.575793116896348,1
2025-04-02 08:10:03.829886,28.61275916850688,77.2294734113439,29.455016960259346,36.91729985411421,-4.46076643887449,0.8372264709416718,-4.701941270647978,1
2025-04-02 08:10:04.829887,28.612707351150174,77.22940971445045,26.43026325233976,38.28246748876464,9.964808063226103,4.916598201582254,0.7798410281650522,1
2025-04-02 08:10:05.829888,28.61261840322795,77.22926812171792,23.405509544420177,39.647635123415064,-2.1393608630971728,3.8701456459274164,1.4578250884136317,1
2025-04-02 08:10:06.829889,28.61267958465577,77.22931348853548,20.38075583650059,41.01280275806549,-2.911930444054511,1.60742673385087,-1.6620890298183846,1
2025-04-02 08:10:07.829890,28.612619743302567,77.22945843457656,17.356002128581004,42.37797039271592,2.8772519438483606,-0.7614497377068288,-1.6086118245845158,1
2025-04-02 08:10:08.829891,28.62360032625983,77.24926099154996,14.33124842066142,43.74313802736635,-7.212882875770702,0.23666504944318922,-1.145202666216101,1
2025-04-02 08:10:09.829892,28.630844426805535,77.23916078398848,11.306494712741834,45.108305662016775,1.8814495496288295,0.7143560357933499,-2.027801082095567,1
2025-04-02 08:10:10.829893,28.618669045621424,77.24083254350366,58.797735692185434,9.22396447286075,-0.4789184863153124,4.271135120995386,2.043169702442533,1
2025-04-02 08:10:11.829894,28.621893654511332,77.2343096385219,58.37951207558055,9.724436566764494,-81.36546405909712,31.28591419040474,-0.11780120046098334,1
2025-04-02 08:10:12.829895,28.627794948849704,77.2485920727658,52.15580417103384,11.524707286977842,12.6868982370151,-12.358061222947718,0.8843755947022696,1
2025-04-02 08:10:13.829896,28.61912242310232,77.24349766898015,54.74420149690415,9.407367825826972,12.82886560382397,11.096362856419503,-2.8117311562801537,1
2025-04-02 08:10:14.829897,28.612754108615906,77.22932481459995,58.721793245100756,11.02408307307889,52.22648526221886,27.826910629168154,1.4882061526867654,1
2025-04-02 08:10:15.829898,28.61258598284243,77.22927266380191,62.49746740759473,9.85442760208037,-35.879047723255624,34.571987230472985,-1.776650158340928,1
2025-04-02 08:10:16.829899,28.612583233288305,77.22935026265385,62.75122487853032,9.226864892589317,-39.40815801192024,8.103275997120804,0.6250572693284946,1
2025-04-02 08:10:17.829900,28.612599345133535,77.22936649749035,57.51930181829045,12.166131283003207,-58.057848254473086,-8.707625959824611,-2.303117409281354,1
2025-04-02 08:10:18.829901,28.621947781060843,77.2410746428421,52.28737875805058,15.105397673417094,19.268325166507594,-18.634514396087496,1.838007089868514,1
2025-04-02 08:10:19.829902,28.63004757939744,77.24116484958607,47.0554556978107,18.044664063830986,8.543216334780467,-8.616532570481276,-1.8313780218168494,1
2025-04-02 08:10:20.829902,28.629267150307818,77.2382376813722,41.82353263757083,20.98393045424487,30.868717855071537,-23.806743060569648,1.209678078112975,1
2025-04-02 08:10:21.829903,28.627435359298623,77.23763960802314,36.591609577330956,23.92319684465876,16.242969258001224,30.144480915168884,0.30685526285451925,1
2025-04-02 08:10:22.829904,28.630212597822805,77.23555971742688,31.35968651709108,26.862463235072653,69.28755247726866,16.48765326980513,-0.17575695577880035,1
2025-04-02 08:10:23.829905,28.63107307263921,77.24060067112588,26.127763456851206,29.801729625486537,-62.560797445893854,-14.239727769571413,-3.4750936844478115,1
2025-04-02 08:10:24.829906,28.628594765417677,77.24740809389219,20.895840396611334,32.74099601590043,80.89701319874544,33.268001257891925,-1.158238495554162,1
2025-04-02 08:10:25.829907,28.62057620817791,77.24893269892337,15.663917336371462,35.68026240631431,-72.07402431859344,-36.118773675155026,-4.96850278253556,1
2025-04-02 08:10:26.829908,28.62042545260812,77.24940858856272,10.431994276131586,38.619528796728204,-19.520746636298696,-6.874994909977204,-0.4233360406017288,1
2025-04-02 08:10:27.829909,28.624408657434028,77.24061837932146,62.860110470233806,9.967407620562204,77.05135065224104,16.681931966377,0.42591255594279076,1
2025-04-02 08:10:28.829910,28.627051722871503,77.23971626466728,60.67297986319429,10.75680352986859,27.701466190308395,43.728617174699195,-2.653677290452863,1
2025-04-02 08:10:29.829911,28.612712361692967,77.22994982175726,59.07090622277898,9.864397553477346,-72.69509683140652,32.80839562076005,1.1545578111840584,1
2025-04-02 08:10:30.829912,28.612594494218293,77.2298714571761,54.384872076560484,8.819693596878745,80.55241600115332,-0.9035982069080575,0.17579519233519042,1
2025-04-02 08:10:31.829913,28.61239283685512,77.22978190376465,57.024424196833806,11.273359796946595,-63.29432782271204,-6.107144425775488,0.7103231714856459,1
2025-04-02 08:10:32.829914,28.61223573311824,77.22988850972418,56.825327861871386,9.453384784300544,47.706266563964874,9.304974637390067,-3.046921840304672,1
2025-04-02 08:10:33.829915,28.612309638499323,77.22988320028405,51.78762060959161,10.086397111314906,-54.99547436082847,-16.979222683879847,2.112506180152245,1
2025-04-02 08:10:34.829916,28.612359441065593,77.22985129713949,57.834617035226536,10.65808512713737,-36.1163397503579,-20.594620457647494,-0.8884125308621572,1
2025-04-02 08:10:35.829917,28.61251049655034,77.22990940072835,55.04961389206798,10.965276113816236,-4.729197203922519,-2.748442984817911,4.150439414205012,0
2025-04-02 08:10:36.829918,28.612616025544728,77.22986760875013,56.93751778157047,10.414943111316921,1.6979960170094333,-1.1502278768820229,-1.5712092335544088,0
2025-04-02 08:10:37.829919,28.612576267992065,77.22979883619382,57.32113934842952,10.32899700994976,-8.984311091634257,1.2020483349393805,-1.0115213720000127,0
2025-04-02 08:10:38.829920,28.612490874951206,77.22994925016651,58.2663864071659,10.70428337520312,-3.1342407518326434,3.716092057879318,3.794430747349864,0
2025-04-02 08:10:39.829921,28.61238691506813,77.22988207673788,61.33386506138614,6.966775579075584,-4.673811203447761,-2.255338117305018,-1.2452090613584375,0
2025-04-02 08:10:40.829922,28.617666274673113,77.23836197889963,60.4005237333148,9.615910764293965,6.143404403805413,-0.12431511985606328,-5.198894890624983,1
2025-04-02 08:10:41.829923,28.629615909115955,77.237877021744,57.90255450001421,11.559793134060806,-0.10220129252648946,0.9830831861492276,4.220505413688623,1
2025-04-02 08:10:42.829923,28.63754595594824,77.2576647465396,54.776421157357895,10.272675097937181,-7.923090905462336,4.0854444604420745,-2.523307877807963,1
2025-04-02 08:10:43.829924,28.640362156136895,77.24678408677369,55.68254615568562,10.667527782079032,0.6659902999269175,2.111962098890674,1.2762386152712988,1
2025-04-02 08:10:44.829925,28.646003335637396,77.25393681414549,53.473688651758124,9.21765479182796,-2.3284541934515803,1.4747276438918109,1.7380261455692272,1
2025-04-02 08:10:45.829926,28.634803929179068,77.25155818535096,57.52516760970451,10.372361372403384,52.298879630334454,24.90951026934924,-1.7338178809598097,1
2025-04-02 08:10:46.829927,28.627127662878184,77.24742765067184,59.88969912342314,8.449341283437253,-25.885506533741307,-32.51531391002247,1.9665117338413443,1
2025-04-02 08:10:47.829928,28.628467550497056,77.25887921964916,60.93294733386557,10.822486223882773,11.118756115229885,20.117699364504716,-1.3993595660574532,1
2025-04-02 08:10:48.829929,28.624362996589667,77.2463544524729,62.8278551087604,10.416538439874659,52.58072825682672,-14.801834899535518,0.3531771158113712,1
2025-04-02 08:10:49.829930,28.618084802283594,77.24807992939576,66.32162759633017,9.93622146360977,-68.74135773504236,0.974124843364514,2.180401279828718,1
2025-04-02 08:10:50.829931,28.630146769644515,77.23606597117212,72.73514219110233,11.175252495196315,68.11202826550854,26.831661217406776,0.00911668241071998,1
2025-04-02 08:10:51.829932,28.612785054278056,77.22994918269173,76.53380421612755,10.429653041536751,-73.42423230235588,13.624956214796455,-0.1584288026106037,1
2025-04-02 08:10:52.829933,28.612877452478195,77.22997565127676,79.04380078566865,9.247312382380777,11.502511482256395,7.88629979543208,-1.1315572489127241,1
2025-04-02 08:10:53.829934,28.612872510059862,77.2299002101759,77.45914628981264,8.89328577703143,11.059953883462683,-9.341812902116892,-1.8297667088910277,1
2025-04-02 08:10:54.829935,28.61268480702422,77.22977116774162,78.51299664339065,8.92489051465889,-5.4538019087264615,-0.6722715480604506,-1.8318939440365851,1
2025-04-02 08:10:55.829936,28.612800827636754,77.22963139992854,80.20053524868909,8.552354222239442,-57.54475826392547,3.7958149522945988,-0.7059313348256947,1
2025-04-02 08:10:56.829937,28.612999700638813,77.22966071567971,82.43549705993692,7.1428148003140475,44.5703404673055,11.105977125151838,-1.1142895814406868,1
2025-04-02 08:10:57.829938,28.612874588908326,77.22969033468358,81.81440680587184,10.851277342433464,-11.235996879904633,21.26362253807733,1.617171278943882,1
2025-04-02 08:10:58.829939,28.612925644937064,77.22955734567962,83.8153750986096,9.592880126306984,77.99157805890567,10.464300837120263,-0.5822494087175905,1
2025-04-02 08:10:59.829940,28.612805135889634,77.22938990315042,84.10674313041153,9.190942683466517,-34.99940797647253,-13.396952648624175,-0.08090051488605314,1
2025-04-02 08:11:00.829941,28.61276102615285,77.2293448318517,84.38098842501483,9.484915964404937,-32.7465955371145,5.589400432062163,-1.0175003763020205,1
2025-04-02 08:11:01.829942,28.61276114837073,77.22935366752738,84.30043639843205,8.931526488410512,57.69652363376733,0.8838574140807935,0.38514679614521974,1
2025-04-02 08:11:02.829943,28.612728597091863,77.22945181556685,86.36597305850937,12.117596286323177,3.5107287735500154,-0.41581305973165267,-0.1478005792009402,0
2025-04-02 08:11:03.829944,28.612582953216563,77.22928339552102,89.83311470383585,10.82145638316164,-1.5331069541508366,3.1211949816671556,-2.2817437778186647,0
2025-04-02 08:11:04.829944,28.61248810964668,77.22926436206569,90.91048904417906,10.803157705351659,-1.4388384852842964,1.892427085334438,0.9179652625426812,0
2025-04-02 08:11:05.829945,28.612472623082073,77.22905538940353,90.0636369215686,9.327793957455672,-10.060367548844127,-3.165739347995159,-4.654044842246424,0
2025-04-02 08:11:06.829946,28.612285795369868,77.22904219246948,93.68428223288488,9.946972003817118,-0.5114683283457101,0.5115806247094259,0.29448124718970803,0
2025-04-02 08:11:07.829947,28.612448441993678,77.22900243395186,93.2018706580892,10.05072955014244,-0.18403151759279557,-0.04234950996378485,2.3982872762907705,0
2025-04-02 08:11:08.829948,28.612525263972483,77.22914090369892,86.55523234560393,8.180606933238202,-7.880783707183542,-2.3346677282215462,-0.6905789325243324,0
2025-04-02 08:11:09.829950,28.612407159613255,77.2291067024476,88.6395517642853,9.837504706952602,-3.1524066146844594,2.3188906298955687,1.6120506317043009,0
2025-04-02 08:11:10.829951,28.61242250705037,77.22925706673117,87.55915198994083,10.944889086134593,-1.2403755770283245,-0.09057657551311608,-2.346599224756017,0
2025-04-02 08:11:11.829952,28.627138445638302,77.23929563250756,91.12258305233102,9.771547422510125,-2.3139292508046334,1.3143289442841621,-4.06692935031987,1
2025-04-02 08:11:12.829953,28.625646498096497,77.23825443551318,89.60932658238274,9.63139615052506,-10.158863204122639,12.501062852622866,-2.7392737073286013,1
2025-04-02 08:11:13.829953,28.628022298089896,77.24769736336886,93.80609149906027,11.039230509827561,-43.92811555087364,30.199977462574736,-2.257301911699569,1
2025-04-02 08:11:14.829954,28.63202421224024,77.24143098024037,87.45531846170726,10.697956358854775,-59.932229536712356,-43.794989837843836,4.22948314396558,1
2025-04-02 08:11:15.829955,28.619394692001126,77.24569539563318,86.37659865283925,11.994692279011929,43.6470848214515,-38.319176883521884,-0.4824779650064002,1
2025-04-02 08:11:16.829956,28.625362580690574,77.24793986188939,88.63582158796186,10.537011171060298,1.7700626366326873,16.32101875363469,0.03873803053184839,1
2025-04-02 08:11:17.829957,28.612576125098272,77.2290994494317,87.65145475283306,8.814193598902502,-2.8227494199008163,-37.76984713203787,-0.5785668278653348,1
2025-04-02 08:11:18.829958,28.61249380141227,77.22919745151515,79.42281998103113,11.63686948629711,-84.94682442662862,5.301350629414827,1.2171937468656524,1
2025-04-02 08:11:19.829959,28.61227477557216,77.22947109776246,71.19418520922918,14.459545373691718,48.23644515775405,-30.75980298733169,-0.45643916318504635,1
2025-04-02 08:11:20.829960,28.61230701908345,77.22953938061634,62.96555043742724,17.282221261086328,-61.357565163012836,26.856100173430832,-0.21217528439171857,1
2025-04-02 08:11:21.829961,28.612374515747963,77.22958733027559,54.736915665625304,20.104897148480937,-21.67842819329441,-37.1161346011061,4.553735356760195,1
2025-04-02 08:11:22.829962,28.61238990240116,77.22962102667927,46.50828089382337,22.927573035875543,89.29330573601962,24.867633235001747,1.7892337415747708,1
2025-04-02 08:11:23.829963,28.61228196404529,77.22985192308023,41.85119781554217,24.247102460161436,73.030459975799,37.22235834864246,-0.16968392183930484,1
2025-04-02 08:11:24.829964,28.61249718770188,77.22977295450038,37.19411473726097,25.56663188444733,20.27546897044087,12.271588413173973,-1.1222679553805943,1
2025-04-02 08:11:25.829965,28.61252789786148,77.22978999231785,32.53703165897977,26.88616130873322,3.5415454385285585,-4.3833849248255135,-0.37533015599976166,1
2025-04-02 08:11:26.829966,28.61260765624301,77.22997770309739,27.87994858069857,28.20569073301911,-52.69362246512746,-3.8166081954307884,2.6709263899329505,1
2025-04-02 08:11:27.829967,28.612628295460656,77.22989675989326,23.22286550241737,29.525220157305004,-25.482092684838292,-30.946362288388507,0.1351299217327606,1
2025-04-02 08:11:28.829968,28.612554463942594,77.23002822438197,18.565782424136174,30.844749581590897,57.3852276464271,33.25120792285975,1.7697793175645478,1
2025-04-02 08:11:29.829969,28.612473143106566,77.23013668561435,18.1303553930242,31.086793938633924,-71.77081215071054,41.51354219347178,-0.6683087534196178,1
2025-04-02 08:11:30.829970,28.612390561953433,77.23033367966993,17.69492836191223,31.328838295676952,-24.632601434855772,12.69049375989595,1.8714707878639032,1
2025-04-02 08:11:31.829971,28.612250717143375,77.23025268955533,17.259501330800255,31.57088265271998,-2.603700797149372,12.461105005493252,-0.541871748844272,1
2025-04-02 08:11:32.829972,28.612305686946502,77.23021889701516,16.82407429968828,31.81292700976301,3.8217518850803094,-2.5649549689829914,-4.254055936807964,1
2025-04-02 08:11:33.829973,28.61235855333999,77.23027249584825,16.38864726857631,32.054971366806036,-1.6092748946624356,3.010405430388565,-1.581983253113979,1
2025-04-02 08:11:34.829974,28.612349780978775,77.23046194616522,15.953220237464336,32.297015723849064,-4.361971240533268,-2.1092935346080326,3.253343001654734,1
2025-04-02 08:11:35.829975,28.61224510917947,77.23035948682414,15.517793206352362,32.53906008089209,2.795398495179886,0.9721911910473964,0.5802884746557387,1
2025-04-02 08:11:36.829976,28.6123376063364,77.2305186389594,15.08236617524039,32.78110443793512,86.95716858193305,20.7343292837877,3.9982985376375337,1
2025-04-02 08:11:37.829977,28.612460796426983,77.23049446471845,14.646939144128417,33.02314879497815,38.98166491937053,13.943990201081903,-4.789797566642219,1
2025-04-02 08:11:38.829978,28.62526731080334,77.24256992659691,14.211512113016443,33.265193152021176,-79.208919823299,26.311547304683486,0.8710416511264968,1
2025-04-02 08:11:39.829979,28.62238415271199,77.24169931838591,13.776085081904471,33.507237509064204,-77.26553952050867,-10.609820122501176,0.1383869818401608,1
2025-04-02 08:11:40.829980,28.63158838537868,77.24397605182818,13.340658050792499,33.74928186610723,60.22447274041929,-31.828906787931103,-1.1838049360455143,1
2025-04-02 08:11:41.829981,28.623426771548576,77.24064977637286,23.988210940555035,34.83316507738028,72.63627972341553,-15.181747144987053,0.27035147534087406,1
2025-04-02 08:11:42.829982,28.62644420329373,77.24334709377976,20.198589357117847,36.53555650566834,-25.151274871311827,12.374404400713416,-2.5649568792447592,1
2025-04-02 08:11:43.829983,28.639926125178114,77.25623609126754,16.40896777368065,38.23794793395639,43.29241734031868,18.286124904527405,4.879761249070806,1
2025-04-02 08:11:44.829984,28.64455849346643,77.2539788569522,12.619346190243466,39.940339362244444,-38.03119990653617,34.286495160151716,-3.356055214242963,1
2025-04-02 08:11:45.829984,28.638643079637593,77.25375958706479,64.76940736260588,10.120653748658444,8.223259422055499,-2.712964480903056,1.5647343523261463,1
2025-04-02 08:11:46.829985,28.639835097487087,77.2583970922233,68.97098178261902,9.460019094870772,33.017528207341044,-36.81606139445771,-3.4329166409562983,1
2025-04-02 08:11:47.829986,28.63752878260833,77.24900198607683,68.00802445290272,7.596520919940842,-64.48877593533182,0.2954074300766223,-1.192193769419034,1
2025-04-02 08:11:48.829987,28.634083003718374,77.25627577562929,71.07709179251742,9.665152909116117,8.955603989230667,-28.535421834662987,0.5733920147621002,1
2025-04-02 08:11:49.829988,28.61871160384163,77.24188640700481,70.46600273406438,11.368371287757062,85.70453563502423,39.214953658933965,-2.318021045643168,1
2025-04-02 08:11:50.829989,28.612736954248604,77.23088247420091,66.06644948087539,13.61284210656785,-74.68618931220824,29.689949305111483,-3.1069642433120883,1
2025-04-02 08:11:51.829990,28.61264956625639,77.23095687836549,61.66689622768642,15.857312925378638,9.365984345488755,8.338228445451193,-2.5466671338279414,1
2025-04-02 08:11:52.829991,28.612645966607236,77.23094790971567,57.26734297449744,18.101783744189426,-32.589855267614716,36.48296990736149,0.4443980512773082,1
2025-04-02 08:11:53.829992,28.629602206187915,77.24091338514432,52.86778972130847,20.346254563000215,30.87923731238189,-32.08161288874108,-0.393991263331617,1
2025-04-02 08:11:54.829993,28.63465630215499,77.2440263671808,48.468236468119485,22.590725381811,-13.212816560280956,14.804491199452144,-0.8334455079894847,1
2025-04-02 08:11:55.829994,28.63358303651194,77.25377892280868,44.06868321493051,24.835196200621787,-42.47824253885037,44.9997173040917,-0.7584094568872556,1
2025-04-02 08:11:56.829995,28.63597782627674,77.26247563841598,39.66912996174153,27.079667019432577,12.255359464497403,5.165956432120389,-1.0927277495502943,1
2025-04-02 08:11:57.829996,28.637567775714817,77.25491547807601,37.103081231916434,29.591959120758318,-46.060152292440385,12.511392998740881,0.5604737291912675,1
2025-04-02 08:11:58.829996,28.637742545358105,77.2459720629971,34.537032502091336,32.10425122208406,-6.507761067572133,-8.499285340079858,-2.2389188213468065,1
2025-04-02 08:11:59.829997,28.644720231053306,77.24763456689753,31.970983772266244,34.61654332340979,81.46460762867628,32.09709268945949,-0.49724856309882054,1
2025-04-02 08:12:00.829998,28.644033522004218,77.2529394469666,29.404935042441146,37.128835424735534,-18.586947548724496,30.812137476349235,1.7738344668190387,1
2025-04-02 08:12:01.830000,28.637151124619002,77.26168530627545,26.838886312616047,39.641127526061275,20.97436032708177,42.21932276606404,-1.3620671911436975,1
2025-04-02 08:12:02.830001,28.64950200703717,77.26126470787163,24.272837582790952,42.15341962738701,48.100217751623035,31.811727717149267,-0.4079355453640863,1
2025-04-02 08:12:03.830002,28.624249134847528,77.24040498444131,21.706788852965857,44.66571172871275,69.10059736401703,-5.214574074539968,-1.9165321360435386,1
2025-04-02 08:12:04.830012,28.62885995230667,77.24893906094799,19.14074012314076,47.17800383003849,48.23997982703244,-30.666323849792263,-0.053631700418442174,1
2025-04-02 08:12:05.830013,28.63354920854915,77.26422037932184,72.57636047530428,11.743132029580034,-15.192688857699252,40.87809856564532,1.3018230033958258,1
2025-04-02 08:12:06.830014,28.643352447162293,77.25968257116324,74.00428002553392,10.27880510796195,-11.235144199881432,-35.84959528142232,-0.1376727249115281,1
2025-04-02 08:12:07.830015,28.644583397708807,77.25487500983155,74.86146561789857,9.878674606135283,3.7163553443988917,-42.8011178224692,-4.20810036694435,1
2025-04-02 08:12:08.830016,28.6181922720179,77.23986071934485,75.87401820111415,9.290299837209275,-36.49169041342226,41.3213101824271,-0.6270528064084328,1
2025-04-02 08:12:09.830017,28.626318531632037,77.24991633180457,75.33254347697978,10.050919553310733,-13.214736032035432,-39.34871937322698,5.6829705874359115,1
2025-04-02 08:12:10.830018,28.62348240584454,77.24197009820433,77.02135516472892,9.410949370857734,64.00305319079675,-12.914271874939772,-3.5540685926178717,1
2025-04-02 08:12:11.830019,28.623480146035785,77.2421786178042,79.33189921292775,11.64303572059033,-67.75396740957764,-25.020576217126756,-2.1099391794947815,1
2025-04-02 08:12:12.830020,28.611870705443117,77.23058540778787,82.28214222684224,10.049827473156252,-34.60291140980235,16.690801291593424,0.19552313916568942,1
2025-04-02 08:12:13.830020,28.61173710713842,77.2305975256081,79.78353711186662,10.4599504388656,-1.9784907519306727,-0.7188483451394373,-0.5498921323742106,0
2025-04-02 08:12:14.830021,28.611723936698095,77.23059580795156,77.32880958188527,9.758599758076462,-4.880441218201007,2.043835451825675,-0.37315297868516323,0
2025-04-02 08:12:15.830022,28.611850003488893,77.230529384956,78.72563278343858,11.115177134004705,-3.0554807980868066,-1.1693975685290334,-2.2591642833140946,0
2025-04-02 08:12:16.830023,28.61183542574043,77.2306348150018,79.07402236385848,12.093984474159589,3.4411460646642142,-3.9785444963580545,1.1793060769419335,0
2025-04-02 08:12:17.830024,28.611828171817777,77.2304893264327,79.9902116011667,10.737534723812878,-4.106616401465089,-3.456031571635799,-1.1987121837364658,0
2025-04-02 08:12:18.830025,28.611828350349512,77.23057726143192,86.24129009417838,11.74487075417356,0.23233030539541674,-2.25471144713192,2.093222015026739,0
2025-04-02 08:12:19.830026,28.611757727369056,77.23052824903442,85.83185928293645,10.776477303588104,7.415225583373962,2.2827871030159788,0.6762667100055662,0
2025-04-02 08:12:20.830027,28.61179893822948,77.23045549846756,88.62216304697424,10.99512156186765,4.507929184209123,-2.2093059259328727,-1.4819022358583267,1
2025-04-02 08:12:21.830028,28.61183804933989,77.23049964222474,80.04140402831526,13.700721028244075,-0.8842404799830388,-0.7685547528182701,0.3286080685974137,1
2025-04-02 08:12:22.830029,28.611896342301716,77.23039800100257,71.46064500965628,16.4063204946205,2.0623438574293402,2.439120185444109,-0.4037295307038658,1
2025-04-02 08:12:23.830030,28.6119642788389,77.23055324243022,62.87988599099731,19.11191996099692,3.7587842219908274,-3.6749706993677393,-0.3695429280811305,1
2025-04-02 08:12:24.830031,28.611947758764124,77.23066114210151,54.29912697233833,21.817519427373348,2.5366124851080785,-1.099532056725241,-2.2767356006874557,1
2025-04-02 08:12:25.830032,28.611992820149588,77.23074402862036,45.71836795367935,24.523118893749775,5.196710265478009,-3.443972040971464,-0.7203442747774242,1
2025-04-02 08:12:26.830033,28.612065441705937,77.2307998918077,37.137608935020374,27.228718360126194,0.15587007104863676,1.064217131479922,4.594482709730835,1
2025-04-02 08:12:27.830034,28.61191426380296,77.23082364469715,28.5568499163614,29.93431782650262,1.3465882146402923,-0.7889594437303242,-0.44370877535424985,1
2025-04-02 08:12:28.830035,28.61185311670984,77.23070117975006,19.97609089770242,32.63991729287905,8.640777485661483,-2.718889659890991,-0.5675163610512618,1
2025-04-02 08:12:29.830036,28.611742465306573,77.23072516855194,11.395331879043443,35.34551675925547,-64.72802195353879,-1.0108605027366053,-1.9238106370702466,1
2025-04-02 08:12:30.830037,28.611703380032186,77.23067772272664,84.6977733442177,6.854217696817377,-43.65486357961847,42.27002376327944,-2.435615630741398,1
2025-04-02 08:12:31.830038,28.61161122086637,77.23042590681159,88.26813881288231,10.24412149810794,-32.194354603986554,-19.406775554121367,2.031294628298374,1
2025-04-02 08:12:32.830039,28.61156178772163,77.23019995756889,91.66667309574876,10.224023375271903,32.79998743829684,14.719585594058138,-1.314589281833626,1
2025-04-02 08:12:33.830040,28.611434876955467,77.23031519563652,87.43854239820664,10.933719102526366,25.167349963680508,-21.309873302417433,-0.46922576451054976,1
2025-04-02 08:12:34.830041,28.611535593496647,77.2302211995197,91.65620969316086,9.293505522619846,60.579993440012515,-16.812155933459643,-2.6221402258510054,1
2025-04-02 08:12:35.830041,28.61133810748111,77.23041925437096,90.22803070216985,8.952926867128138,22.82314097263898,-5.5811038403356505,-0.7693457594947498,1
2025-04-02 08:12:36.830042,28.61150161427072,77.2306042731868,91.44289292997436,9.46819287700396,1.9467685548804354,33.09085383098251,-1.2166929736953827,1
2025-04-02 08:12:37.830043,28.611542185873684,77.23070830571977,93.37906808850695,11.595585149639195,-2.726713955889603,2.8410855338109284,-1.2083913213667066,0
2025-04-02 08:12:38.830044,28.61149626312662,77.23079030218841,100.11052039076199,10.150191499936415,-3.285365396349367,2.403789447133182,0.3617077160256542,0
2025-04-02 08:12:39.830045,28.611623800959997,77.23059693274381,97.37023521260554,9.451160053954677,0.9820326240215513,-1.372576100823035,-0.8191846165495875,0
2025-04-02 08:12:40.830046,28.611486681860452,77.23053603861119,97.7265876863818,8.03270984676066,-2.0423616557265567,-0.5323899036271585,1.1999185152315348,0
2025-04-02 08:12:41.830047,28.62550135132205,77.24325921592478,100.52263258708142,9.722208262089065,-1.2050699152730395,-0.14868297106461287,0.18684119875126526,1
2025-04-02 08:12:42.830048,28.61759166212241,77.23559432666521,101.04032628581606,10.700569013615553,-83.49298650268048,34.94169340273508,-2.7448459271389747,1
2025-04-02 08:12:43.830049,28.628056010304185,77.24724295656536,106.4224970766474,11.223372018974882,54.28963017414728,-34.0176451875049,-1.5413160263443542,1
2025-04-02 08:12:44.830050,28.624556199193446,77.24433569886988,98.42466987018545,14.492663910015999,-40.196414855122654,-23.327476907347975,1.4380444733962496,1
2025-04-02 08:12:45.830051,28.61836966111601,77.2439550779421,90.4268426637235,17.761955801057116,-82.26854055234774,13.272763264530774,-0.9810541114261362,1
2025-04-02 08:12:46.830052,28.64190159163842,77.25125841214796,83.66561945970633,19.94986767043144,33.924476291471464,-6.398323265773719,-3.3523602440304687,1
2025-04-02 08:12:47.830053,28.645381542132704,77.24816359575128,76.90439625568915,22.137779539805763,-17.261138956472223,-1.436094217743623,-3.591454430696125,1
2025-04-02 08:12:48.830054,28.631498673767947,77.265525090683,70.14317305167198,24.325691409180088,-12.638347598953459,-3.2788581769787797,-2.1403824200607873,1
2025-04-02 08:12:49.830055,28.64084515013998,77.25274052082382,63.38194984765481,26.513603278554413,-2.9773517761184,3.2286971193477734,0.13942533851019717,1
2025-04-02 08:12:50.830056,28.659716366505236,77.2690506724225,56.62072664363763,28.701515147928735,-8.06543244360944,-0.12883776214266254,-0.43888881066130025,1
2025-04-02 08:12:51.830057,28.653530498408546,77.27063278131001,49.859503439620454,30.88942701730306,-0.8109277751108318,0.019646469020837245,0.7224050516359618,1
2025-04-02 08:12:52.830058,28.66733877808032,77.31860710077027,43.09828023560328,33.07733888667738,6.518215932041898,-2.414254371067534,0.8483444712879643,1
2025-04-02 08:12:53.830059,28.677273361569625,77.31337884641205,36.337057031586106,35.26525075605171,3.5519974619532606,-0.2223298867674155,3.7960090791179737,1
2025-04-02 08:12:54.830060,28.679451486060618,77.30446999100747,29.57583382756893,37.45316262542603,-2.2455591726901205,-2.3596462191147087,-0.175638161072266,1
2025-04-02 08:12:55.830061,28.663476335859432,77.28259334673224,22.814610623551758,39.64107449480035,-4.909947410914253,-2.217758822362225,-0.13423609817906182,1
2025-04-02 08:12:56.830062,28.631446616068324,77.27053531930576,16.053387419534587,41.82898636417468,-0.9854587620589137,-0.4178502408702796,3.389787556305975,1
2025-04-02 08:12:57.830063,28.641840832875005,77.25350459677558,9.292164215517397,44.016898233549,-3.8992490470323125,1.3808822283609867,1.2299860232869135,1
2025-04-02 08:12:58.830064,28.63578989370444,77.26004104226996,40.79572594945332,25.715006075896014,-0.469650258644856,-1.5085908882426924,-1.8136385543919376,1
2025-04-02 08:12:59.830065,28.628165804155792,77.24402966465712,37.0785594843681,26.8319864131669,79.6700664166226,-20.4131980665205,-0.29257728636798513,1
2025-04-02 08:13:00.830066,28.617941046937702,77.24818644259868,33.361393019282886,27.948966750437783,-80.09904639100357,-32.44245257296271,-0.18801333922458308,1
2025-04-02 08:13:01.830067,28.61668858125944,77.2426855619771,29.644226554197665,29.065947087708665,-62.68258634444303,43.11588522468584,0.06641746489465056,1
2025-04-02 08:13:02.830068,28.611396804143595,77.23052187673906,25.927060089112445,30.18292742497955,-66.08369444790081,5.03403669966977,0.15355144484085897,1
2025-04-02 08:13:03.830069,28.611265456904885,77.23056103691226,22.209893624027227,31.299907762250434,20.430663921629048,-41.16464488810137,-0.2885147479442745,1
2025-04-02 08:13:04.830070,28.61107044652429,77.23046569684253,18.492727158942007,32.416888099521316,-22.121703900029715,-13.301723415072782,-1.3174864907320418,1
2025-04-02 08:13:05.830070,28.611031356405828,77.23047092171979,109.59130346875415,9.787496221737968,-43.9757623088008,-0.4459644491052046,-1.0152841331553681,1
2025-04-02 08:13:06.830071,28.618400789106822,77.24574992138434,116.6359866426732,10.1471438115902,-27.627776403974664,11.849820480679504,-0.46672621596788216,1
2025-04-02 08:13:07.830072,28.62933447942261,77.23620237462424,124.6871688661638,7.549595498697586,-40.50818779949654,26.357369348631366,-1.9414197326261855,1
2025-04-02 08:13:08.830073,28.61765035622473,77.24086211668308,125.51833011673001,9.022988446623742,88.02608802849701,15.848175383231556,-3.4524074802456584,1
2025-04-02 08:13:09.830074,28.619549223786176,77.23782537855213,105.88584132087928,12.583294766175868,80.81731879639443,42.23930488029761,-2.149573348494297,1
2025-04-02 08:13:10.830075,28.630300886375807,77.24280502990725,86.25335252502856,16.143601085727994,-6.698579421781653,-0.9085456955412609,-0.0253602722346641,1
2025-04-02 08:13:11.830076,28.62598656188491,77.24679748474627,66.62086372917784,19.70390740528012,8.207274076895606,-3.305190911644942,-0.5689971929318517,1
2025-04-02 08:13:12.830077,28.629382258699323,77.24750456931291,46.98837493332711,23.264213724832246,2.2193646952552517,-1.136301680905413,-0.3211970616341351,1
2025-04-02 08:13:13.830078,28.628546040788827,77.24784894689957,27.35588613747639,26.824520044384375,-3.796112030817094,0.5209883309981685,1.7329268821031485,1
2025-04-02 08:13:14.830079,28.629009683735244,77.23908244517409,7.72339734162566,30.3848263639365,-2.589909061773345,0.8378258628257165,1.9631765838009514,1
2025-04-02 08:13:15.830080,28.630534492655148,77.24997649129241,125.84475845659863,9.347738017657806,10.27614205912641,-0.029636762666048592,2.422300728079093,1
2025-04-02 08:13:16.830081,28.62937163709703,77.23799958454707,125.06457005380436,9.820267175232155,2.4246182872135638,1.813640638676319,1.8456510649011106,1
2025-04-02 08:13:17.830082,28.619098876860093,77.24293958053659,124.23533310585283,9.44883276332599,72.47682527861835,13.207935848070747,3.3037766367305297,1
2025-04-02 08:13:18.830083,28.629786101426546,77.23947242939902,127.008213505552,9.578341882060862,-13.129705531330501,-27.131553976604383,-2.0684069601453148,1
2025-04-02 08:13:19.830084,28.61841189920791,77.24769811561538,125.72868138947057,8.486258344707247,-44.1883211497882,30.96178853235793,-2.7734971256067467,1
2025-04-02 08:13:20.830085,28.618940148810168,77.23751071344633,133.1763340137717,9.983584456175981,-16.41051065661523,11.555208773873431,1.2871918679312941,1
2025-04-02 08:13:21.830086,28.61098753374609,77.23069094945542,140.17049372443296,10.314769551498383,-10.29988378114669,4.167064416402546,-2.5367079251645017,1
2025-04-02 08:13:22.830086,28.62105703398252,77.24792831627167,136.04494589198993,7.672559212709461,18.20676010292341,42.269118842470235,-2.084791627987433,1
2025-04-02 08:13:23.830087,28.62020502737544,77.236153192674,140.18926809905693,10.106358154513677,-68.90387531110879,-13.568120073572182,-0.11297150427549257,1
2025-04-02 08:13:24.830088,28.61775009234647,77.24794042780499,142.77295861123406,9.906235369806835,-53.0141243053709,24.81983430404597,2.2864110116614014,1
2025-04-02 08:13:25.830089,28.61718829472898,77.24056357708847,146.48963170183288,9.493809573875739,-68.22154838237954,35.839817351479184,-0.9291635143831956,1
2025-04-02 08:13:26.830090,28.629548384892217,77.23759666759014,150.26508497430362,8.82345826164471,67.93144689314423,-10.437492430110268,-1.6200019201241678,1
2025-04-02 08:13:27.830091,28.624534922960112,77.24815812142923,149.41273505003596,12.27657516211789,68.64802799425891,8.869381643821797,-0.2617969469252227,1
2025-04-02 08:13:28.830092,28.616826927630164,77.23969774830607,137.29182875458844,14.926004990669975,32.46848728117159,-27.464732622779618,-3.1057388231030227,1
2025-04-02 08:13:29.830093,28.624895258148012,77.24756397161929,125.17092245914093,17.57543481922206,58.124320488724095,23.259446337076568,1.6061283914721673,1
2025-04-02 08:13:30.830094,28.620165562609362,77.24931035123039,113.0500161636934,20.224864647774144,89.75582212768171,-33.38645777188829,-1.5274583643270772,1
2025-04-02 08:13:31.830095,28.617431121723268,77.24445346588327,100.92910986824589,22.874294476326227,43.70969678269853,-21.188080258323744,-2.484533745306695,1
2025-04-02 08:13:32.830096,28.61800987060621,77.2407300603181,88.80820357279836,25.523724304878314,-87.53809987722711,37.931784044895096,1.606262536087737,1
2025-04-02 08:13:33.830097,28.629278946210242,77.24973384997189,76.68729727735084,28.173154133430398,-38.19269007609721,10.20889841917679,1.2701587712326057,1
2025-04-02 08:13:34.830098,28.610712759869116,77.23021663168394,64.56639098190333,30.822583961982485,83.36945621085971,22.357570534707307,1.4831811440279417,1
2025-04-02 08:13:35.830099,28.610708658933394,77.23025777283895,52.4454846864558,33.47201379053457,89.56939275614494,21.621350128171144,0.5815733438387314,1
2025-04-02 08:13:36.830099,28.610634463227974,77.23014920890091,40.324578391008274,36.12144361908665,-14.032267859266469,28.24498936787822,-1.6044321839621216,1
2025-04-02 08:13:37.830100,28.610566478383856,77.23009460590644,35.5849006652091,38.109773664122486,-10.013449796863469,32.530642793277224,0.440204715293193,1
2025-04-02 08:13:38.830101,28.61040960823929,77.23018422490193,30.845222939409915,40.09810370915832,-43.34500744379293,37.731036589639174,-0.42340742837827344,1
2025-04-02 08:13:39.830102,28.610369839296414,77.2302489288421,26.10554521361074,42.08643375419416,28.762094317037537,11.816834287582651,3.837144767450402,1
2025-04-02 08:13:40.830103,28.61026654916318,77.23036042941551,21.36586748781156,44.07476379922999,65.47623093925665,-33.136711184645335,-2.1043459742134045,1
2025-04-02 08:13:41.830104,28.610200229014936,77.23047273608634,16.62618976201238,46.06309384426583,4.650101775182577,-4.742012368487576,-2.1694844543989267,1
2025-04-02 08:13:42.830105,28.610287795819836,77.23045222270135,11.886512036213201,48.05142388930167,4.767048813671032,0.4960512065127086,-0.6593892149640398,1
2025-04-02 08:13:43.830106,28.61018477364313,77.2305366105549,138.4644945311979,13.135552720180527,-9.9520113437425,-0.994983602058541,0.48690043520914716,1
2025-04-02 08:13:44.830107,28.61008348445902,77.23062157911824,127.83854052270999,15.353846347940237,-5.741835430463168,1.0384004171491625,2.4229736250338036,1
2025-04-02 08:13:45.830109,28.629776189603092,77.24816795982099,117.2125865142221,17.572139975699947,-1.5647252639777176,-1.775009843646658,1.2725566813752913,1
2025-04-02 08:13:46.830110,28.623896108122086,77.2442086341643,106.5866325057342,19.79043360345966,9.071339589367092,-1.097767020289829,1.9925330953808196,1
2025-04-02 08:13:47.830111,28.629999227744673,77.24270631174984,95.9606784972463,22.008727231219375,-0.11543665291025285,1.9458778081710584,0.9927922603634433,1
2025-04-02 08:13:48.830112,28.62382512313808,77.23818774339583,83.37644137068467,23.280001859323733,-43.45760233726934,-4.159973050989791,1.0084221413324685,1
2025-04-02 08:13:49.830113,28.621391570630074,77.24239738598425,70.79220424412303,24.551276487428087,1.2086270251819968,-19.585746984506827,-1.3646935397896989,1
2025-04-02 08:13:50.830113,28.62550989812011,77.24639375373302,58.207967117561395,25.822551115532445,65.0199384913899,34.766998791156354,0.6086973843419041,1
2025-04-02 08:13:51.830114,28.62051886524135,77.23681042036638,45.623729990999756,27.093825743636803,51.4919936669549,39.69815957151191,3.3917675582510354,1
2025-04-02 08:13:52.830115,28.61604626152226,77.2374187447211,33.03949286443812,28.365100371741157,-77.57804652698346,-35.83966565007335,2.3455633086480545,1
2025-04-02 08:13:53.830116,28.623216323143097,77.24367857382113,20.455255737876485,29.636374999845515,-9.401363577283334,-1.2966139073532332,-3.543324087442395,1
2025-04-02 08:13:54.830117,28.617159608715447,77.23741734098355,7.871018611314844,30.907649627949873,-41.61426363407259,-0.6634821062225598,-0.11787352222613783,1
2025-04-02 08:13:55.830118,28.609550029715304,77.23047852757644,10.953046429343141,39.75507625329706,80.95947761507048,25.434555150015214,-0.42148443546266745,1
2025-04-02 08:13:56.830119,28.609452419318742,77.23031342734342,159.8695283287591,9.713621128518781,63.80259195966758,0.7232339269825943,0.85191169117351,1
2025-04-02 08:13:57.830126,28.609538107025173,77.23022323404355,162.30960937090774,9.052049414510439,8.156164488574689,-3.5376191046618146,0.6833210766192361,1
2025-04-02 08:13:58.830127,28.60946942684003,77.23026502117969,163.08337076832623,10.605320507308221,52.3559245417361,-24.576015286036046,0.8459050571322667,1
2025-04-02 08:13:59.830128,28.60928580331273,77.23024053663599,162.17916691949523,10.150839512065916,37.52848648722612,-34.92665476858847,-0.6018220870733644,1
2025-04-02 08:14:00.830128,28.60935431481701,77.2302614170843,160.18342303018318,9.510686338303692,72.33548764733592,-27.14688304782767,0.13613479837049897,1
2025-04-02 08:14:01.830129,28.609430153481043,77.2303189702391,161.58008421882812,11.953497571324567,21.363200302882092,-30.09048905499885,1.6088050530670068,1
2025-04-02 08:14:02.830130,28.60937998991514,77.23014384484244,161.82418429612056,10.4082408601231,-71.14333744354919,-11.199810341941166,-1.494033471102563,1
2025-04-02 08:14:03.830131,28.60940297284794,77.23031156047414,163.5569190017571,9.687238152338294,-40.64122026997358,-2.3442237328919333,-3.9501476901421566,1
2025-04-02 08:14:04.830132,28.60941055008422,77.23030049330794,163.85284684215446,10.028507546896043,-72.68134363750876,-14.84952848721036,5.490256421343312,1
2025-04-02 08:14:05.830133,28.609250126985497,77.23025288981323,165.7969049194375,9.951593620520232,-6.010527908567624,-28.451964109843885,-0.3350088191100973,1
2025-04-02 08:14:06.830134,28.609214307559522,77.23007527778105,154.49900600182275,12.449947387435422,22.62716548451418,-10.631380164862065,-0.09481778986963046,1
2025-04-02 08:14:07.830135,28.609128428051505,77.2300885733996,142.70097380171933,14.507300418769985,20.157915657345526,-2.580890555579643,-1.5163111169215684,1
2025-04-02 08:14:08.830136,28.609212143266603,77.23004859302762,130.9029416016159,16.564653450104547,33.80159420686259,22.906811754266684,-3.5156380904404796,1
2025-04-02 08:14:09.830137,28.60940594627608,77.23019308812371,119.10490940151246,18.622006481439108,-25.187710134562266,-36.66444334547688,-1.6859641516917965,1
2025-04-02 08:14:10.830138,28.609504163463,77.23019412280038,107.30687720140904,20.679359512773672,37.731185321423965,38.8729756496904,-0.24382282713692022,1
2025-04-02 08:14:11.830139,28.609646720021757,77.23033564247638,95.50884500130562,22.736712544108237,-18.984274265333653,-23.768261967216493,-3.453147706276751,1
2025-04-02 08:14:12.830140,28.60976200958186,77.23021492635525,83.71081280120218,24.794065575442797,-16.830824951916497,-42.91676117007626,-1.3280997981322573,1
2025-04-02 08:14:13.830141,28.609858954984034,77.23021630543965,77.63416719741588,25.874826155595716,36.545897693618684,-22.845229034154553,-1.0161106478844084,1
2025-04-02 08:14:14.830142,28.6099458474986,77.230161186308,71.55752159362957,26.95558673574864,-7.420156991139891,37.92406692519671,-3.026393101198917,1
2025-04-02 08:14:15.830143,28.609935915122566,77.23016689252454,65.48087598984327,28.03634731590156,76.14419364066836,7.026089969578003,4.449387891662631,1
2025-04-02 08:14:16.830144,28.60986791125532,77.23013112860157,59.40423038605695,29.11710789605448,-77.91418554936556,-0.3309812072673992,3.48546383207257,1
2025-04-02 08:14:17.830145,28.60980850945242,77.23005069466132,53.32758478227065,30.1978684762074,9.130311090682142,-41.63194766315137,0.3532042877705376,1
2025-04-02 08:14:18.830146,28.60974516382403,77.22996094654842,47.250939178484344,31.278629056360323,-81.60362366994481,-41.16708510129787,-4.000363270999793,1
2025-04-02 08:14:19.830147,28.609630594856277,77.23002160619404,41.174293574698034,32.35938963651324,39.12763456253441,18.033539908927168,-3.619798011498538,1
2025-04-02 08:14:20.830148,28.609919374293806,77.22997261658357,35.09764797091173,33.44015021666616,32.26230407131621,-5.328707104040674,0.05127115936867342,1
2025-04-02 08:14:21.830149,28.60998723272659,77.22993718943518,29.021002367125426,34.52091079681908,-50.46164942042764,1.6465594541507684,-1.3357554567560581,1
2025-04-02 08:14:22.830150,28.610078861786924,77.22991708075597,22.944356763339115,35.60167137697201,-10.718686216021382,-42.37983105900443,-0.8254898879477938,1
2025-04-02 08:14:23.830151,28.610091620808753,77.22994619538476,16.867711159552808,36.682431957124926,-7.061822905870017,13.380959710111668,2.2676214107395287,1
2025-04-02 08:14:24.830152,28.60998691423745,77.22997490828334,7.590782222006595,38.85100210638452,29.71408081499807,44.522762825294265,-2.641887619106831,1
2025-04-02 08:14:25.830153,28.60983970183533,77.22986651989075,175.76335058770854,8.96474827598139,-76.19207183320901,43.51277003180505,-0.010477350547234266,1
2025-04-02 08:14:26.830154,28.6098655531891,77.22999476175465,176.0033601081027,10.520185939929261,-18.470470951778097,-30.746664155884922,-2.9595485712822907,1
2025-04-02 08:14:27.830155,28.609844151386277,77.2300342675896,173.00655507125595,9.69260957909512,74.69511512311931,7.081520290838441,-0.2341117308250279,1
2025-04-02 08:14:28.830156,28.609776828889615,77.2300737172306,175.80628983855092,10.27480429221555,-38.45230559865517,-14.645077972551075,-0.3952473569254315,1
2025-04-02 08:14:29.830157,28.60995033621805,77.23029083354851,179.69116915118803,10.547779950665428,-27.413593462699133,-14.192618982400266,0.13927228952856197,1
2025-04-02 08:14:30.830158,28.60980200736108,77.23030645109395,181.23103026978026,8.024176602031654,-69.11595035101263,12.783555731769717,-2.586658998563531,1
2025-04-02 08:14:31.830159,28.609800079905394,77.23030743040178,186.35747101907427,7.861525823734148,-32.24090026631723,33.78958290814231,-0.8854737036869574,1
2025-04-02 08:14:32.830160,28.609719593713297,77.23044042064448,189.79049361377054,10.859719058370924,-63.181832080423085,-27.71408508680144,0.9716868664554399,1
2025-04-02 08:14:33.830160,28.609528075089763,77.23051494088105,188.39956142681416,8.950116904280216,-32.619907013259784,-37.53545208075799,-2.0321187229205595,1
2025-04-02 08:14:34.830161,28.609392729565098,77.23053549953214,194.75709939678865,8.755296166107192,-4.436485160171216,3.4975349621555347,0.7148544119659901,0
2025-04-02 08:14:35.830162,28.609532472036992,77.23052304104526,195.0795845241986,9.150133460952816,-1.7853945316421358,-1.2979695556177446,-2.239938553058081,0
2025-04-02 08:14:36.830163,28.609544488825016,77.23048139531411,197.95196107045592,9.743945738654968,2.4616034493117436,-0.05481675586521132,-0.27817882808052186,0
2025-04-02 08:14:37.830164,28.60955980364632,77.23047954219989,202.02009223318404,8.68744618591132,0.7085691755395156,1.3035970219944513,-1.5916836349548689,1
2025-04-02 08:14:38.830165,28.609623386231785,77.23068085913948,164.91858672847198,15.262545834568785,4.597630411701222,0.6017313527777268,-2.8702612244654113,1
2025-04-02 08:14:39.830166,28.61896226995382,77.24629156751872,152.09590647131873,18.074157117862686,1.5300723054025591,-2.8067574628357606,1.971294563388495,1
2025-04-02 08:14:40.830167,28.616546677382264,77.24554908130166,139.27322621416548,20.88576840115659,28.780499701175074,-30.090726285354393,-0.6559651004527196,1
2025-04-02 08:14:41.830168,28.622885985496193,77.24143813146664,126.45054595701222,23.69737968445049,51.813623551801186,-0.4888204236007567,-1.6850847921476262,1
2025-04-02 08:14:42.830169,28.640004455291194,77.26046605582722,113.62786569985897,26.508990967744392,-80.72081924572012,21.211213856062784,-1.3002599542799547,1
2025-04-02 08:14:43.830170,28.635842685111356,77.25805756067093,100.80518544270572,29.320602251038295,-47.65223265785998,18.838622525151116,-1.10199419504871,1
2025-04-02 08:14:44.830171,28.64048916706606,77.24997183155907,87.98250518555247,32.132213534332195,-33.4408451940902,-10.014340802827377,2.408756444343498,1
2025-04-02 08:14:45.830172,28.63642310086962,77.27687000901484,75.15982492839922,34.943824817626094,26.662987141173176,-13.967999620583782,-0.19729357316331922,1
2025-04-02 08:14:46.830173,28.621909781915097,77.2519080479204,62.337144671245966,37.75543610092,-45.02731491239188,1.312403401813306,-0.7396139471160209,1
2025-04-02 08:14:47.830174,28.625599096162244,77.25943138450903,49.514464414092714,40.5670473842139,1.9742587949170072,-0.1055700263031355,2.077089720345464,1
2025-04-02 08:14:48.830175,28.64068157511857,77.25082997285367,36.69178415693946,43.3786586675078,1.4123904194070307,-0.4208745395784772,-0.46008962796336794,1
2025-04-02 08:14:49.830176,28.644832880022324,77.24942711550271,23.86910389978621,46.19026995080171,2.1177212370930047,0.6726952781234435,2.8719901082464805,1
2025-04-02 08:14:50.830177,28.631611784306063,77.26415421030511,11.046423642632949,49.001881234095606,6.152350192559563,-1.071119326867173,1.0969759742284095,1
2025-04-02 08:14:51.830178,28.64167242066157,77.25936476719835,11.261615483163446,46.871924921122904,-0.7812823885087563,3.2696186337750612,2.7640017827200576,1
2025-04-02 08:14:52.830179,28.624093315623696,77.26862484149211,11.476807323693944,44.7419686081502,10.515885487036288,2.993696151794517,1.245325149835197,1
2025-04-02 08:14:53.830180,28.63323851555956,77.25760280864142,11.69199916422444,42.6120122951775,-0.04757817838418329,0.040270070708061934,2.3947034804187544,1
2025-04-02 08:14:54.830180,28.641948413754015,77.2578109774119,11.907191004754937,40.4820559822048,3.7639950027007005,3.1901357265586645,-0.7897928710828414,1
2025-04-02 08:14:55.830181,28.61689679496003,77.2505674156771,12.122382845285435,38.35209966923209,8.761371943605395,1.1404494375630703,-4.229402404321231,1
2025-04-02 08:14:56.830182,28.629180130048397,77.24498385303673,12.33757468581593,36.22214335625939,10.963420978326429,0.9223224352239328,-0.7779460436920085,1
2025-04-02 08:14:57.830183,28.61025945365136,77.23064488955701,12.552766526346428,34.092187043286685,3.3329175979145553,-3.621964375870855,0.18229301816836133,1
2025-04-02 08:14:58.830184,28.61025792494387,77.23060697375776,12.767958366876925,31.962230730313983,2.5725112704902733,-0.7352050000109123,1.1651338038790495,1
2025-04-02 08:14:59.830185,28.61028305047738,77.23059918012633,209.03797866978252,8.958572090264788,0.5047937664358502,0.030159487258716543,-2.779693096642613,0
2025-04-02 08:15:00.830186,28.61022529480969,77.2307027742679,206.3125445141509,11.03749347584827,-1.3617802970735862,1.122494121704869,1.9200006757650898,1
2025-04-02 08:15:01.830187,28.61035229047725,77.23063616384239,190.45571005959238,14.1366914246908,-4.059657440781002,1.9358987490192765,-2.0327618115286255,1
2025-04-02 08:15:02.830188,28.610393920772758,77.23031403655447,174.59887560503384,17.235889373533333,-0.3757808226448523,2.5393450823175554,-0.9039534160699183,1
2025-04-02 08:15:03.830189,28.619924110163357,77.2461041547169,158.7420411504753,20.335087322375863,8.916804707871535,-4.996884109528559,1.3934531496244762,1
2025-04-02 08:15:04.830190,28.627503052534056,77.23599870564072,142.8852066959168,23.434285271218393,-67.40245641736904,27.914411112962483,1.1948627761692368,1
2025-04-02 08:15:05.830191,28.617924332384728,77.23878129681235,127.02837224135827,26.533483220060923,73.4545749437126,22.30584549180064,0.8411189585550939,1
2025-04-02 08:15:06.830192,28.622395109697734,77.24766291929792,111.17153778679975,29.632681168903453,-46.884296008749764,15.095264661351095,1.0686346620817195,1
2025-04-02 08:15:07.830193,28.63686012920033,77.24329323208093,93.48854418567856,30.188891836888022,76.4320946624546,28.09555201154697,2.123907305913682,1
2025-04-02 08:15:08.830194,28.631128607139882,77.2448804181657,75.80555058455738,30.74510250487259,50.08263754954669,-36.033287012555206,-4.029939265829958,1
2025-04-02 08:15:09.830195,28.624525257997604,77.24544186336915,58.12255698343621,31.30131317285716,-75.83527162658999,-27.085478383238335,0.12495580879106219,1
2025-04-02 08:15:10.830196,28.627183244893324,77.2499670777527,40.43956338231503,31.85752384084173,85.05358848034274,-39.80375942315699,-5.508947154218765,1
2025-04-02 08:15:11.830197,28.623405498170683,77.2392927952337,22.756569781193846,32.413734508826295,-86.80185210246906,2.160572224161136,-1.0995890862902773,1
2025-04-02 08:15:12.830198,28.624718799513946,77.24421354744446,5.07357618007268,32.96994517681087,61.85901039594367,-37.8654915590229,-1.1295432219110133,1
2025-04-02 08:15:13.830199,28.618335768930635,77.24530885615786,111.4585741586802,20.253757153677817,-44.352270889637175,-44.65287142760386,0.31885362039867454,1
2025-04-02 08:15:14.830200,28.628679590236086,77.24898943451866,78.56915843009403,24.191556904607634,5.284414916317902,-2.434249190670679,1.1787342773006282,1
2025-04-02 08:15:15.830201,28.628141169971116,77.24971493331454,45.67974270150788,28.12935665553745,4.800638715555254,2.834795330254284,1.7186779615233125,1
2025-04-02 08:15:16.830202,28.622783313089712,77.24892640702167,12.79032697292171,32.06715640646726,-3.282954731143828,1.6434938796778027,-0.9936550630445441,1
2025-04-02 08:15:17.830203,28.617196165692157,77.24135234838177,206.89900537829192,10.142732493471348,-3.735070641244296,4.835106722688178,0.48162908165488244,1
2025-04-02 08:15:18.830204,28.611407697878118,77.23020029353778,212.11603330932238,9.770761512287237,1.2600722094130687,2.9198642606017176,0.6456188580731173,0
2025-04-02 08:15:19.830205,28.611363083165372,77.23026037130285,211.00307709340635,9.818270305666013,5.078106996422722,1.6716365058626685,2.166607698268903,1
2025-04-02 08:15:20.830206,28.611303666722044,77.23029441633777,186.76894570108766,14.327284570537746,-0.2081351197496551,2.33462175218819,0.8279159481671164,1
2025-04-02 08:15:21.830206,28.6112844173739,77.2302628579853,162.534814308769,18.836298835409476,-3.5353730099969956,-0.38926715672566065,3.070738620574337,1
2025-04-02 08:15:22.830207,28.611265659156714,77.23019040381581,138.3006829164503,23.34531310028121,-0.7984134413573719,3.3867722217241956,-1.0871527721853729,1
2025-04-02 08:15:23.830208,28.611150904178256,77.23017777501447,114.06655152413163,27.85432736515294,-0.3615060078645653,0.807717482059058,0.012697369744059767,1
2025-04-02 08:15:24.830209,28.611161739554124,77.2301463812201,89.83242013181294,32.36334163002467,-0.39447067256289325,0.33233059266359233,-2.204040964251241,1
2025-04-02 08:15:25.830210,28.611201240377532,77.23012580414195,65.59828873949428,36.8723558948964,-1.487697538262741,3.1601921721241784,-4.064279052036093,1
2025-04-02 08:15:26.830211,28.61116332384926,77.2300837108073,41.36415734717559,41.38137015976813,-0.7066417689066689,-1.0678248407354423,-1.3052226684174757,1
2025-04-02 08:15:27.830212,28.611181446875058,77.2299705064425,17.130025954856894,45.89038442463986,4.560367820728774,0.8301506783420467,3.7396710758300564,1
2025-04-02 08:15:28.830213,28.611147665372123,77.23000316296441,150.0312355672117,16.39251942724809,-32.45118550155228,-2.104015344134325,-2.181336904268556,1
2025-04-02 08:15:29.830214,28.61120014339451,77.22993863113682,130.6484178361868,18.760357944909188,-38.02612962146372,36.60287361225737,0.9012744660473956,1
2025-04-02 08:15:30.830215,28.616547668546787,77.23708516935447,111.26560010516188,21.128196462570287,13.205817881930926,-5.858609126453345,-0.6231830677759764,1
2025-04-02 08:15:31.830216,28.62855766944905,77.23640689625054,91.88278237413695,23.496034980231386,81.10511034858104,-10.242250327322779,-2.663972535567441,1
2025-04-02 08:15:32.830217,28.625787696388592,77.24631316067232,78.89434993686773,27.793712674360638,32.81026865218054,9.101540362111379,-3.2209091424802536,1
2025-04-02 08:15:33.830218,28.623126323050908,77.24418462743203,65.9059174995985,32.09139036848989,-78.74213997032646,3.2023196392424893,-0.46938131452259607,1
2025-04-02 08:15:34.830219,28.645076635683555,77.25137528325074,52.917485062329284,36.38906806261914,-51.85924085736798,35.98754627044224,2.3202037948469263,1
2025-04-02 08:15:35.830220,28.634916050706423,77.2558533819066,39.92905262506006,40.686745756748394,29.987364544049157,42.66420149354175,-1.263997944372616,1
2025-04-02 08:15:36.830221,28.62806372034667,77.25573674954757,26.94062018779084,44.98442345087764,69.82568476605951,8.826976657111814,2.0706475740032353,1
2025-04-02 08:15:37.830222,28.625661606283575,77.26096543945192,13.952187750521617,49.28210114500689,68.87445132476032,-11.693373012305265,-0.9067327222372268,1
2025-04-02 08:15:38.830223,28.6163693989683,77.23625869806115,180.31712243398465,15.779532614512693,-80.91590586302503,-18.832776556984058,2.185303013147269,1
2025-04-02 08:15:39.830224,28.62328085155504,77.2443147007942,148.0624675728954,19.918899405345947,-13.58077900139736,-26.19342869268771,-0.8766338744006106,1
2025-04-02 08:15:40.830225,28.623187867568177,77.24893034530132,115.80781271180616,24.058266196179204,39.501763632466776,-19.968850793405178,-1.9154098567942508,1
2025-04-02 08:15:41.830226,28.62592762554685,77.24386309620928,83.55315785071693,28.197632987012454,23.955630731994376,21.010725244124387,1.6157939523998945,1
2025-04-02 08:15:42.830227,28.617615646519468,77.23551035749172,51.29850298962768,32.33699977784571,53.47747404921421,-11.015251950950585,-2.0271275870803196,1
2025-04-02 08:15:43.830228,28.618577405774918,77.23919854298312,19.04384812853845,36.47636656867897,72.369169777134,36.35368956717279,-1.2361124661113274,1
2025-04-02 08:15:44.830229,28.620012146626937,77.2467432341141,17.387078332477934,37.70848152813538,-2.1041109286570787,21.860105753579532,2.199477393698583,1
2025-04-02 08:15:45.830230,28.624722508703734,77.2498977582348,15.730308536417418,38.94059648759178,5.1373376236034005,-9.834140179066033,-0.08386901325382959,1
2025-04-02 08:15:46.830231,28.621448475738003,77.24701535412277,14.073538740356902,40.172711447048194,-12.437911095214318,-2.3525975066219402,2.8412441315065045,1
2025-04-02 08:15:47.830231,28.620930477654905,77.24482081622942,12.416768944296386,41.404826406504604,-10.687762193760122,-5.02914250214058,-2.391930330138239,1
2025-04-02 08:15:48.830232,28.627124103803215,77.23703410598122,10.75999914823587,42.63694136596101,3.8541922678159994,-0.2002671190080612,0.5084866465460836,1
2025-04-02 08:15:49.830233,28.610844503911192,77.22996957309145,9.103229352175354,43.86905632541742,-5.84816662785747,-0.4476119659684416,-0.8372070971538597,1
2025-04-02 08:15:50.830234,28.610789178369423,77.23009355082144,195.75191949267085,11.134187169286294,-10.253335476267276,3.3138817654713533,1.1077935041254003,1
2025-04-02 08:15:51.830235,28.61088160915279,77.23015825355871,180.66456960577307,12.772361885087102,0.10173598861092212,-1.2042012687661072,2.970378683573837,1
2025-04-02 08:15:52.830236,28.610856691379343,77.23008618340266,163.8784737204577,16.351591024032043,-2.844672449617136,-4.631158783541623,-1.5651709263130067,1
2025-04-02 08:15:53.830237,28.610918630573185,77.23021260609691,147.09237783514232,19.930820162976985,3.1887142314608448,1.5401716357381252,-2.963507015799143,1
2025-04-02 08:15:54.830238,28.610902572070106,77.23028878199341,130.3062819498269,23.510049301921924,0.4791610024446114,0.41556735269399264,-2.0481324556675395,1
2025-04-02 08:15:55.830239,28.6247530216175,77.24013141127298,113.52018606451153,27.08927844086687,10.049431877126043,-2.785060272040992,4.4325463696059355,1
2025-04-02 08:15:56.830240,28.624421999629714,77.24349657684081,96.73409017919616,30.66850757981181,-0.6074528896846891,-1.803499425683994,-0.1376615620674603,1
2025-04-02 08:15:57.830241,28.616280490464785,77.2380177522113,79.94799429388077,34.24773671875675,-1.9616993003008658,-1.7236238768463545,-0.2678677105120992,1
2025-04-02 08:15:58.830242,28.630572833245115,77.24969560295021,63.16189840856538,37.826965857701694,-0.7164579510495455,0.13211721849050928,1.9833483141190498,1
2025-04-02 08:15:59.830243,28.631140595008546,77.24114886686215,46.37580252325,41.40619499664663,-80.98062132260921,-43.88581460198502,-3.305260567657083,1
2025-04-02 08:16:00.830244,28.61943511239194,77.24312782620086,29.589706637934626,44.98542413559157,40.2875117954664,-44.67553325315915,-0.10811368830896978,1
2025-04-02 08:16:01.830245,28.617752939204756,77.23512241440807,12.803610752619228,48.56465327453652,-59.72513413522689,-7.0292240531091394,0.9073558654688806,1
2025-04-02 08:16:02.830246,28.610841605427517,77.22985830311049,34.43342537384936,36.555316830663074,52.67569789489366,13.744130132022107,0.3426978047259109,1
2025-04-02 08:16:03.830247,28.610876107416306,77.22973866745284,21.31904593934678,38.76979485364059,-76.82431307974558,31.66783324165614,1.0652742347244288,1
2025-04-02 08:16:04.830248,28.61072735837458,77.22973180147727,8.204666504844173,40.98427287661811,69.35912560938877,-17.33425261600691,-0.6790314992322976,1
2025-04-02 08:16:05.830249,28.610667586564706,77.22979492402636,205.60413940353678,9.768968441509658,7.880557368364052,-33.07590484175013,3.5058828108806877,1
2025-04-02 08:16:06.830250,28.63066010968618,77.2406771867375,209.06945099733315,10.047721620493535,70.00974688991803,-6.7137241014052975,-0.5030179728013481,1
